{
  "acci" : [
    {
      "id": 161307,
      "사고다발지ID": 2013099,
      "법정동코드": 1111013400,
      "지점코드": 11110001,
      "시도시군구명": "서울특별시 종로구1",
      "name": "서울특별시 종로구 경운동(안국역 부근)",
      "count": 4,
      "사상자수": 4,
      "사망자수": 0,
      "중상자수": 0,
      "경상자수": 3,
      "부상신고자수": 1,
      "lon": 126.9855436,
      "lat": 37.57653312
    },
    {
      "id": 153927,
      "사고다발지ID": 2013099,
      "법정동코드": 1111012300,
      "지점코드": 11110002,
      "시도시군구명": "서울특별시 종로구2",
      "name": "서울특별시 종로구 서린동(SK빌딩 부근)",
      "count": 4,
      "사상자수": 4,
      "사망자수": 0,
      "중상자수": 1,
      "경상자수": 2,
      "부상신고자수": 1,
      "lon": 126.9810696,
      "lat": 37.57027931
    },
    {
      "id": 153929,
      "사고다발지ID": 2013099,
      "법정동코드": 1111017500,
      "지점코드": 11110003,
      "시도시군구명": "서울특별시 종로구3",
      "name": "서울특별시 종로구 숭인동(동묘앞역_일반국도6호선_진출 부근)",
      "count": 5,
      "사상자수": 5,
      "사망자수": 0,
      "중상자수": 2,
      "경상자수": 2,
      "부상신고자수": 1,
      "lon": 127.0152428,
      "lat": 37.57299394
    },
    {
      "id": 139637,
      "사고다발지ID": 2013099,
      "법정동코드": 1114016300,
      "지점코드": 11140001,
      "시도시군구명": "서울특별시 중구1",
      "name": "서울특별시 중구 흥인동(다산교(남단) 부근)",
      "count": 4,
      "사상자수": 4,
      "사망자수": 0,
      "중상자수": 1,
      "경상자수": 2,
      "부상신고자수": 1,
      "lon": 127.0154352,
      "lat": 37.56971443
    },
    {
      "id": 153931,
      "사고다발지ID": 2013099,
      "법정동코드": 1117012800,
      "지점코드": 11170001,
      "시도시군구명": "서울특별시 용산구1",
      "name": "서울특별시 용산구 한강로3가(용산대우드림월드3차_한강로_진 부근)",
      "count": 5,
      "사상자수": 5,
      "사망자수": 0,
      "중상자수": 3,
      "경상자수": 2,
      "부상신고자수": 0,
      "lon": 126.9617903,
      "lat": 37.52286839
    },
    {
      "id": 153935,
      "사고다발지ID": 2013099,
      "법정동코드": 1120011500,
      "지점코드": 11200001,
      "시도시군구명": "서울특별시 성동구1",
      "name": "서울특별시 성동구 성수동2가(성수역 부근)",
      "count": 4,
      "사상자수": 4,
      "사망자수": 0,
      "중상자수": 3,
      "경상자수": 1,
      "부상신고자수": 0,
      "lon": 127.0568582,
      "lat": 37.54348728
    },
    {
      "id": 153934,
      "사고다발지ID": 2013099,
      "법정동코드": 1120011400,
      "지점코드": 11200002,
      "시도시군구명": "서울특별시 성동구2",
      "name": "서울특별시 성동구 성수동1가(두산식품동부영업소 부근)",
      "count": 4,
      "사상자수": 5,
      "사망자수": 0,
      "중상자수": 3,
      "경상자수": 2,
      "부상신고자수": 0,
      "lon": 127.0479293,
      "lat": 37.54079459
    },
    {
      "id": 161308,
      "사고다발지ID": 2013099,
      "법정동코드": 1120011400,
      "지점코드": 11200003,
      "시도시군구명": "서울특별시 성동구3",
      "name": "서울특별시 성동구 성수동1가(한양종합카쎈타 부근)",
      "count": 5,
      "사상자수": 5,
      "사망자수": 0,
      "중상자수": 2,
      "경상자수": 3,
      "부상신고자수": 0,
      "lon": 127.0593651,
      "lat": 37.53734838
    },
    {
      "id": 161311,
      "사고다발지ID": 2013099,
      "법정동코드": 1120011500,
      "지점코드": 11200004,
      "시도시군구명": "서울특별시 성동구4",
      "name": "서울특별시 성동구 성수동2가(경동초교입구사거리 부근)",
      "count": 6,
      "사상자수": 6,
      "사망자수": 0,
      "중상자수": 3,
      "경상자수": 3,
      "부상신고자수": 0,
      "lon": 127.0504419,
      "lat": 37.54634781
    },
    {
      "id": 161602,
      "사고다발지ID": 2013099,
      "법정동코드": 1121510100,
      "지점코드": 11215001,
      "시도시군구명": "서울특별시 광진구1",
      "name": "서울특별시 광진구 중곡동(일반국도3호선-일반국도3호선진 부근)",
      "count": 4,
      "사상자수": 4,
      "사망자수": 0,
      "중상자수": 3,
      "경상자수": 1,
      "부상신고자수": 0,
      "lon": 127.0742923,
      "lat": 37.55925373
    },
    {
      "id": 154571,
      "사고다발지ID": 2013099,
      "법정동코드": 1121510300,
      "지점코드": 11215002,
      "시도시군구명": "서울특별시 광진구2",
      "name": "서울특별시 광진구 구의동(광진우체국 부근)",
      "count": 4,
      "사상자수": 5,
      "사망자수": 0,
      "중상자수": 3,
      "경상자수": 1,
      "부상신고자수": 1,
      "lon": 127.0896696,
      "lat": 37.53909345
    },
    {
      "id": 161603,
      "사고다발지ID": 2013099,
      "법정동코드": 1121510900,
      "지점코드": 11215003,
      "시도시군구명": "서울특별시 광진구3",
      "name": "서울특별시 광진구 군자동(흰돌교회 부근)",
      "count": 4,
      "사상자수": 5,
      "사망자수": 0,
      "중상자수": 4,
      "경상자수": 1,
      "부상신고자수": 0,
      "lon": 127.0704363,
      "lat": 37.55380754
    },
    {
      "id": 161604,
      "사고다발지ID": 2013099,
      "법정동코드": 1121510500,
      "지점코드": 11215004,
      "시도시군구명": "서울특별시 광진구4",
      "name": "서울특별시 광진구 자양동(동부간선도로-강변북로램프(7) 부근)",
      "count": 5,
      "사상자수": 5,
      "사망자수": 0,
      "중상자수": 0,
      "경상자수": 3,
      "부상신고자수": 2,
      "lon": 127.070697,
      "lat": 37.53006007
    },
    {
      "id": 161605,
      "사고다발지ID": 2013099,
      "법정동코드": 1121510200,
      "지점코드": 11215005,
      "시도시군구명": "서울특별시 광진구5",
      "name": "서울특별시 광진구 능동(세종대학교 부근)",
      "count": 5,
      "사상자수": 5,
      "사망자수": 0,
      "중상자수": 1,
      "경상자수": 1,
      "부상신고자수": 3,
      "lon": 127.0760212,
      "lat": 37.55055304
    },
    {
      "id": 161601,
      "사고다발지ID": 2013099,
      "법정동코드": 1121510400,
      "지점코드": 11215006,
      "시도시군구명": "서울특별시 광진구6",
      "name": "서울특별시 광진구 광장동(올림픽대교진입고가차도(북측) 부근)",
      "count": 5,
      "사상자수": 5,
      "사망자수": 0,
      "중상자수": 3,
      "경상자수": 1,
      "부상신고자수": 1,
      "lon": 127.0975092,
      "lat": 37.54061991
    },
    {
      "id": 154572,
      "사고다발지ID": 2013099,
      "법정동코드": 1121510300,
      "지점코드": 11215007,
      "시도시군구명": "서울특별시 광진구7",
      "name": "서울특별시 광진구 구의동(자양사거리 부근)",
      "count": 5,
      "사상자수": 5,
      "사망자수": 0,
      "중상자수": 3,
      "경상자수": 2,
      "부상신고자수": 0,
      "lon": 127.0837172,
      "lat": 37.53645095
    },
    {
      "id": 154568,
      "사고다발지ID": 2013099,
      "법정동코드": 1121510500,
      "지점코드": 11215008,
      "시도시군구명": "서울특별시 광진구8",
      "name": "서울특별시 광진구 자양동(신양초교앞 부근)",
      "count": 6,
      "사상자수": 6,
      "사망자수": 0,
      "중상자수": 0,
      "경상자수": 6,
      "부상신고자수": 0,
      "lon": 127.069063,
      "lat": 37.53626889
    },
    {
      "id": 161607,
      "사고다발지ID": 2013099,
      "법정동코드": 1121510500,
      "지점코드": 11215009,
      "시도시군구명": "서울특별시 광진구9",
      "name": "서울특별시 광진구 자양동(신자초교입구 부근)",
      "count": 6,
      "사상자수": 6,
      "사망자수": 0,
      "중상자수": 2,
      "경상자수": 2,
      "부상신고자수": 2,
      "lon": 127.0741092,
      "lat": 37.53358524
    },
    {
      "id": 161606,
      "사고다발지ID": 2013099,
      "법정동코드": 1121510500,
      "지점코드": 11215010,
      "시도시군구명": "서울특별시 광진구10",
      "name": "서울특별시 광진구 자양동(자양삼거리 부근)",
      "count": 6,
      "사상자수": 7,
      "사망자수": 0,
      "중상자수": 3,
      "경상자수": 4,
      "부상신고자수": 0,
      "lon": 127.0777221,
      "lat": 37.53731712
    },
    {
      "id": 154570,
      "사고다발지ID": 2013099,
      "법정동코드": 1121510300,
      "지점코드": 11215011,
      "시도시군구명": "서울특별시 광진구11",
      "name": "서울특별시 광진구 구의동(아차산역 부근)",
      "count": 6,
      "사상자수": 6,
      "사망자수": 1,
      "중상자수": 4,
      "경상자수": 1,
      "부상신고자수": 0,
      "lon": 127.0907428,
      "lat": 37.54935759
    },
    {
      "id": 154569,
      "사고다발지ID": 2013099,
      "법정동코드": 1121510900,
      "지점코드": 11215012,
      "시도시군구명": "서울특별시 광진구12",
      "name": "서울특별시 광진구 군자동(구의사거리 부근)",
      "count": 7,
      "사상자수": 7,
      "사망자수": 0,
      "중상자수": 1,
      "경상자수": 5,
      "부상신고자수": 1,
      "lon": 127.0861419,
      "lat": 37.54489404
    },
    {
      "id": 161609,
      "사고다발지ID": 2013099,
      "법정동코드": 1121510100,
      "지점코드": 11215013,
      "시도시군구명": "서울특별시 광진구13",
      "name": "서울특별시 광진구 중곡동(군자역 부근)",
      "count": 7,
      "사상자수": 7,
      "사망자수": 0,
      "중상자수": 4,
      "경상자수": 3,
      "부상신고자수": 0,
      "lon": 127.0792431,
      "lat": 37.55690588
    },
    {
      "id": 153936,
      "사고다발지ID": 2013099,
      "법정동코드": 1121510300,
      "지점코드": 11215014,
      "시도시군구명": "서울특별시 광진구14",
      "name": "서울특별시 광진구 구의동(결혼의집백악관 부근)",
      "count": 7,
      "사상자수": 7,
      "사망자수": 0,
      "중상자수": 6,
      "경상자수": 1,
      "부상신고자수": 0,
      "lon": 127.0885475,
      "lat": 37.55341077
    },
    {
      "id": 161610,
      "사고다발지ID": 2013099,
      "법정동코드": 1121510500,
      "지점코드": 11215015,
      "시도시군구명": "서울특별시 광진구15",
      "name": "서울특별시 광진구 자양동(국민은행자양동지점 부근)",
      "count": 8,
      "사상자수": 8,
      "사망자수": 0,
      "중상자수": 4,
      "경상자수": 1,
      "부상신고자수": 3,
      "lon": 127.0791584,
      "lat": 37.53073695
    },
    {
      "id": 154565,
      "사고다발지ID": 2013099,
      "법정동코드": 1121510700,
      "지점코드": 11215016,
      "시도시군구명": "서울특별시 광진구16",
      "name": "서울특별시 광진구 화양동(건대입구역 부근)",
      "count": 10,
      "사상자수": 10,
      "사망자수": 0,
      "중상자수": 5,
      "경상자수": 5,
      "부상신고자수": 0,
      "lon": 127.0710031,
      "lat": 37.54050075
    },
    {
      "id": 162892,
      "사고다발지ID": 2013099,
      "법정동코드": 1123010600,
      "지점코드": 11230001,
      "시도시군구명": "서울특별시 동대문구1",
      "name": "서울특별시 동대문구 장안동(동부간선도로-천호대로램프(8) 부근)",
      "count": 3,
      "사상자수": 3,
      "사망자수": 1,
      "중상자수": 1,
      "경상자수": 1,
      "부상신고자수": 0,
      "lon": 127.0746351,
      "lat": 37.56602861
    },
    {
      "id": 161611,
      "사고다발지ID": 2013099,
      "법정동코드": 1123010400,
      "지점코드": 11230002,
      "시도시군구명": "서울특별시 동대문구2",
      "name": "서울특별시 동대문구 전농동(떡전교사거리_전농로_진입_1 부근)",
      "count": 4,
      "사상자수": 4,
      "사망자수": 0,
      "중상자수": 2,
      "경상자수": 2,
      "부상신고자수": 0,
      "lon": 127.0520672,
      "lat": 37.58511839
    },
    {
      "id": 162893,
      "사고다발지ID": 2013099,
      "법정동코드": 1123010300,
      "지점코드": 11230003,
      "시도시군구명": "서울특별시 동대문구3",
      "name": "서울특별시 동대문구 제기동(종암대교 부근)",
      "count": 4,
      "사상자수": 4,
      "사망자수": 0,
      "중상자수": 2,
      "경상자수": 2,
      "부상신고자수": 0,
      "lon": 127.0389583,
      "lat": 37.59120931
    },
    {
      "id": 154891,
      "사고다발지ID": 2013099,
      "법정동코드": 1123010200,
      "지점코드": 11230004,
      "시도시군구명": "서울특별시 동대문구4",
      "name": "서울특별시 동대문구 용두동(재덕정밀 부근)",
      "count": 5,
      "사상자수": 5,
      "사망자수": 0,
      "중상자수": 1,
      "경상자수": 4,
      "부상신고자수": 0,
      "lon": 127.0336615,
      "lat": 37.57391495
    },
    {
      "id": 154894,
      "사고다발지ID": 2013099,
      "법정동코드": 1123010600,
      "지점코드": 11230005,
      "시도시군구명": "서울특별시 동대문구5",
      "name": "서울특별시 동대문구 장안동(장한평역_천호대로_진출_1 부근)",
      "count": 5,
      "사상자수": 5,
      "사망자수": 0,
      "중상자수": 2,
      "경상자수": 2,
      "부상신고자수": 1,
      "lon": 127.0651919,
      "lat": 37.56148378
    },
    {
      "id": 154884,
      "사고다발지ID": 2013099,
      "법정동코드": 1123010600,
      "지점코드": 11230006,
      "시도시군구명": "서울특별시 동대문구6",
      "name": "서울특별시 동대문구 장안동(장안동사거리_답십리길_진입_1 부근)",
      "count": 5,
      "사상자수": 5,
      "사망자수": 0,
      "중상자수": 2,
      "경상자수": 3,
      "부상신고자수": 0,
      "lon": 127.0720766,
      "lat": 37.57212721
    },
    {
      "id": 154895,
      "사고다발지ID": 2013099,
      "법정동코드": 1123010300,
      "지점코드": 11230007,
      "시도시군구명": "서울특별시 동대문구7",
      "name": "서울특별시 동대문구 제기동(한천로-천호대교진입로 부근)",
      "count": 5,
      "사상자수": 6,
      "사망자수": 0,
      "중상자수": 2,
      "경상자수": 4,
      "부상신고자수": 0,
      "lon": 127.0577756,
      "lat": 37.5632705
    },
    {
      "id": 154896,
      "사고다발지ID": 2013099,
      "법정동코드": 1123010500,
      "지점코드": 11230008,
      "시도시군구명": "서울특별시 동대문구8",
      "name": "서울특별시 동대문구 답십리동(쌍마빌딩 부근)",
      "count": 5,
      "사상자수": 7,
      "사망자수": 0,
      "중상자수": 2,
      "경상자수": 4,
      "부상신고자수": 1,
      "lon": 127.0561578,
      "lat": 37.56675942
    },
    {
      "id": 161612,
      "사고다발지ID": 2013099,
      "법정동코드": 1123010400,
      "지점코드": 11230009,
      "시도시군구명": "서울특별시 동대문구9",
      "name": "서울특별시 동대문구 전농동(전농동사거리_전농로_진출_2 부근)",
      "count": 6,
      "사상자수": 7,
      "사망자수": 0,
      "중상자수": 0,
      "경상자수": 7,
      "부상신고자수": 0,
      "lon": 127.0569401,
      "lat": 37.57773387
    },
    {
      "id": 162894,
      "사고다발지ID": 2013099,
      "법정동코드": 1123010300,
      "지점코드": 11230010,
      "시도시군구명": "서울특별시 동대문구10",
      "name": "서울특별시 동대문구 제기동(우리은행청량리중앙지점 부근)",
      "count": 6,
      "사상자수": 7,
      "사망자수": 0,
      "중상자수": 1,
      "경상자수": 6,
      "부상신고자수": 0,
      "lon": 127.0415498,
      "lat": 37.57886526
    },
    {
      "id": 154893,
      "사고다발지ID": 2013099,
      "법정동코드": 1123010200,
      "지점코드": 11230011,
      "시도시군구명": "서울특별시 동대문구11",
      "name": "서울특별시 동대문구 용두동(용두동사거리_일반국도6호선_진 부근)",
      "count": 6,
      "사상자수": 6,
      "사망자수": 0,
      "중상자수": 2,
      "경상자수": 3,
      "부상신고자수": 1,
      "lon": 127.0292484,
      "lat": 37.57742343
    },
    {
      "id": 154887,
      "사고다발지ID": 2013099,
      "법정동코드": 1123010600,
      "지점코드": 11230012,
      "시도시군구명": "서울특별시 동대문구12",
      "name": "서울특별시 동대문구 장안동(승용빌딩 부근)",
      "count": 7,
      "사상자수": 7,
      "사망자수": 0,
      "중상자수": 4,
      "경상자수": 2,
      "부상신고자수": 1,
      "lon": 127.0676139,
      "lat": 37.56666357
    },
    {
      "id": 153933,
      "사고다발지ID": 2013099,
      "법정동코드": 1123010200,
      "지점코드": 11230013,
      "시도시군구명": "서울특별시 동대문구13",
      "name": "서울특별시 동대문구 용두동(마장동사거리 부근)",
      "count": 8,
      "사상자수": 8,
      "사망자수": 0,
      "중상자수": 3,
      "경상자수": 4,
      "부상신고자수": 1,
      "lon": 127.0380316,
      "lat": 37.57252664
    },
    {
      "id": 161614,
      "사고다발지ID": 2013099,
      "법정동코드": 1123010500,
      "지점코드": 11230014,
      "시도시군구명": "서울특별시 동대문구14",
      "name": "서울특별시 동대문구 답십리동(천호대로답오6길삼거리 부근)",
      "count": 9,
      "사상자수": 9,
      "사망자수": 0,
      "중상자수": 6,
      "경상자수": 3,
      "부상신고자수": 0,
      "lon": 127.0512843,
      "lat": 37.56805523
    },
    {
      "id": 161613,
      "사고다발지ID": 2013099,
      "법정동코드": 1123010200,
      "지점코드": 11230015,
      "시도시군구명": "서울특별시 동대문구15",
      "name": "서울특별시 동대문구 용두동(롯데불로장생센터 부근)",
      "count": 9,
      "사상자수": 9,
      "사망자수": 1,
      "중상자수": 3,
      "경상자수": 4,
      "부상신고자수": 1,
      "lon": 127.0369312,
      "lat": 37.5776887
    },
    {
      "id": 162895,
      "사고다발지ID": 2013099,
      "법정동코드": 1126010100,
      "지점코드": 11260001,
      "시도시군구명": "서울특별시 중랑구1",
      "name": "서울특별시 중랑구 면목동(면목두산아파트_면목천길_진입_1 부근)",
      "count": 4,
      "사상자수": 4,
      "사망자수": 0,
      "중상자수": 0,
      "경상자수": 4,
      "부상신고자수": 0,
      "lon": 127.0829788,
      "lat": 37.58041094
    },
    {
      "id": 154909,
      "사고다발지ID": 2013099,
      "법정동코드": 1126010200,
      "지점코드": 11260002,
      "시도시군구명": "서울특별시 중랑구2",
      "name": "서울특별시 중랑구 상봉동(한일써너스빌리젠시 부근)",
      "count": 4,
      "사상자수": 4,
      "사망자수": 0,
      "중상자수": 2,
      "경상자수": 1,
      "부상신고자수": 1,
      "lon": 127.0924188,
      "lat": 37.59750514
    },
    {
      "id": 154908,
      "사고다발지ID": 2013099,
      "법정동코드": 1126010300,
      "지점코드": 11260003,
      "시도시군구명": "서울특별시 중랑구3",
      "name": "서울특별시 중랑구 중화동(중흥초교 부근)",
      "count": 4,
      "사상자수": 4,
      "사망자수": 0,
      "중상자수": 2,
      "경상자수": 1,
      "부상신고자수": 1,
      "lon": 127.0838331,
      "lat": 37.60196853
    },
    {
      "id": 154904,
      "사고다발지ID": 2013099,
      "법정동코드": 1126010200,
      "지점코드": 11260004,
      "시도시군구명": "서울특별시 중랑구4",
      "name": "서울특별시 중랑구 상봉동(동부산부인과의원 부근)",
      "count": 5,
      "사상자수": 5,
      "사망자수": 0,
      "중상자수": 0,
      "경상자수": 1,
      "부상신고자수": 4,
      "lon": 127.0863705,
      "lat": 37.59350248
    },
    {
      "id": 154907,
      "사고다발지ID": 2013099,
      "법정동코드": 1126010100,
      "지점코드": 11260005,
      "시도시군구명": "서울특별시 중랑구5",
      "name": "서울특별시 중랑구 면목동(면목2동사거리_겸재길_진출_1 부근)",
      "count": 5,
      "사상자수": 6,
      "사망자수": 0,
      "중상자수": 0,
      "경상자수": 3,
      "부상신고자수": 3,
      "lon": 127.0822164,
      "lat": 37.58704067
    },
    {
      "id": 161616,
      "사고다발지ID": 2013099,
      "법정동코드": 1126010100,
      "지점코드": 11260006,
      "시도시군구명": "서울특별시 중랑구6",
      "name": "서울특별시 중랑구 면목동(면목역 부근)",
      "count": 5,
      "사상자수": 5,
      "사망자수": 0,
      "중상자수": 1,
      "경상자수": 3,
      "부상신고자수": 1,
      "lon": 127.0872439,
      "lat": 37.58908165
    },
    {
      "id": 161615,
      "사고다발지ID": 2013099,
      "법정동코드": 1126010300,
      "지점코드": 11260007,
      "시도시군구명": "서울특별시 중랑구7",
      "name": "서울특별시 중랑구 중화동(대원메디컬빌딩 부근)",
      "count": 5,
      "사상자수": 5,
      "사망자수": 0,
      "중상자수": 1,
      "경상자수": 3,
      "부상신고자수": 1,
      "lon": 127.078006,
      "lat": 37.60157236
    },
    {
      "id": 154900,
      "사고다발지ID": 2013099,
      "법정동코드": 1126010200,
      "지점코드": 11260008,
      "시도시군구명": "서울특별시 중랑구8",
      "name": "서울특별시 중랑구 상봉동(중랑전화국 부근)",
      "count": 6,
      "사상자수": 6,
      "사망자수": 0,
      "중상자수": 2,
      "경상자수": 0,
      "부상신고자수": 4,
      "lon": 127.0799292,
      "lat": 37.59118234
    },
    {
      "id": 162896,
      "사고다발지ID": 2013099,
      "법정동코드": 1126010100,
      "지점코드": 11260009,
      "시도시군구명": "서울특별시 중랑구9",
      "name": "서울특별시 중랑구 면목동(장안교_일반국도3호선_진출_2 부근)",
      "count": 7,
      "사상자수": 7,
      "사망자수": 0,
      "중상자수": 3,
      "경상자수": 1,
      "부상신고자수": 3,
      "lon": 127.0794036,
      "lat": 37.58215559
    },
    {
      "id": 154898,
      "사고다발지ID": 2013099,
      "법정동코드": 1126010500,
      "지점코드": 11260010,
      "시도시군구명": "서울특별시 중랑구10",
      "name": "서울특별시 중랑구 망우동(망우사거리 부근)",
      "count": 7,
      "사상자수": 7,
      "사망자수": 0,
      "중상자수": 4,
      "경상자수": 1,
      "부상신고자수": 2,
      "lon": 127.1009521,
      "lat": 37.59963631
    },
    {
      "id": 163201,
      "사고다발지ID": 2013099,
      "법정동코드": 1126010300,
      "지점코드": 11260011,
      "시도시군구명": "서울특별시 중랑구11",
      "name": "서울특별시 중랑구 중화동(새서울극장앞 부근)",
      "count": 8,
      "사상자수": 8,
      "사망자수": 0,
      "중상자수": 4,
      "경상자수": 1,
      "부상신고자수": 3,
      "lon": 127.072562,
      "lat": 37.59286995
    },
    {
      "id": 163202,
      "사고다발지ID": 2013099,
      "법정동코드": 1126010300,
      "지점코드": 11260012,
      "시도시군구명": "서울특별시 중랑구12",
      "name": "서울특별시 중랑구 중화동(한샘교회_신상봉역길_진출_1 부근)",
      "count": 10,
      "사상자수": 10,
      "사망자수": 0,
      "중상자수": 1,
      "경상자수": 9,
      "부상신고자수": 0,
      "lon": 127.0813989,
      "lat": 37.59555166
    },
    {
      "id": 139450,
      "사고다발지ID": 2013099,
      "법정동코드": 1129013500,
      "지점코드": 11290001,
      "시도시군구명": "서울특별시 성북구1",
      "name": "서울특별시 성북구 종암동(종암사거리_종암로_진입_2 부근)",
      "count": 4,
      "사상자수": 4,
      "사망자수": 0,
      "중상자수": 1,
      "경상자수": 2,
      "부상신고자수": 1,
      "lon": 127.0324057,
      "lat": 37.6029614
    },
    {
      "id": 155203,
      "사고다발지ID": 2013099,
      "법정동코드": 1129013700,
      "지점코드": 11290002,
      "시도시군구명": "서울특별시 성북구2",
      "name": "서울특별시 성북구 상월곡동(월곡중학교앞 부근)",
      "count": 4,
      "사상자수": 4,
      "사망자수": 0,
      "중상자수": 1,
      "경상자수": 3,
      "부상신고자수": 0,
      "lon": 127.049176,
      "lat": 37.60677842
    },
    {
      "id": 155201,
      "사고다발지ID": 2013099,
      "법정동코드": 1129013800,
      "지점코드": 11290003,
      "시도시군구명": "서울특별시 성북구3",
      "name": "서울특별시 성북구 장위동(장위사거리 부근)",
      "count": 6,
      "사상자수": 6,
      "사망자수": 0,
      "중상자수": 1,
      "경상자수": 3,
      "부상신고자수": 2,
      "lon": 127.060903,
      "lat": 37.61323937
    },
    {
      "id": 163203,
      "사고다발지ID": 2013099,
      "법정동코드": 1129013900,
      "지점코드": 11290004,
      "시도시군구명": "서울특별시 성북구4",
      "name": "서울특별시 성북구 석관동(석관초교입구 부근)",
      "count": 8,
      "사상자수": 10,
      "사망자수": 0,
      "중상자수": 3,
      "경상자수": 5,
      "부상신고자수": 2,
      "lon": 127.057763,
      "lat": 37.61029152
    },
    {
      "id": 161621,
      "사고다발지ID": 2013099,
      "법정동코드": 1130510100,
      "지점코드": 11305001,
      "시도시군구명": "서울특별시 강북구1",
      "name": "서울특별시 강북구 미아동(오치과의원 부근)",
      "count": 4,
      "사상자수": 4,
      "사망자수": 0,
      "중상자수": 1,
      "경상자수": 3,
      "부상신고자수": 0,
      "lon": 127.0279267,
      "lat": 37.62163905
    },
    {
      "id": 155205,
      "사고다발지ID": 2013099,
      "법정동코드": 1130510100,
      "지점코드": 11305002,
      "시도시군구명": "서울특별시 강북구2",
      "name": "서울특별시 강북구 미아동(삼양사거리 부근)",
      "count": 5,
      "사상자수": 6,
      "사망자수": 0,
      "중상자수": 3,
      "경상자수": 3,
      "부상신고자수": 0,
      "lon": 127.0223828,
      "lat": 37.61911431
    },
    {
      "id": 161622,
      "사고다발지ID": 2013099,
      "법정동코드": 1130510300,
      "지점코드": 11305003,
      "시도시군구명": "서울특별시 강북구3",
      "name": "서울특별시 강북구 수유동(광산사거리 부근)",
      "count": 6,
      "사상자수": 6,
      "사망자수": 0,
      "중상자수": 2,
      "경상자수": 4,
      "부상신고자수": 0,
      "lon": 127.0225232,
      "lat": 37.64315862
    },
    {
      "id": 139712,
      "사고다발지ID": 2013099,
      "법정동코드": 1132010500,
      "지점코드": 11320001,
      "시도시군구명": "서울특별시 도봉구1",
      "name": "서울특별시 도봉구 쌍문동(창동변전소 부근)",
      "count": 4,
      "사상자수": 4,
      "사망자수": 0,
      "중상자수": 1,
      "경상자수": 2,
      "부상신고자수": 1,
      "lon": 127.0413698,
      "lat": 37.65965475
    },
    {
      "id": 155209,
      "사고다발지ID": 2013099,
      "법정동코드": 1132010600,
      "지점코드": 11320002,
      "시도시군구명": "서울특별시 도봉구2",
      "name": "서울특별시 도봉구 방학동(MTB자전거 부근)",
      "count": 5,
      "사상자수": 5,
      "사망자수": 0,
      "중상자수": 0,
      "경상자수": 2,
      "부상신고자수": 3,
      "lon": 127.0471842,
      "lat": 37.6631937
    },
    {
      "id": 161623,
      "사고다발지ID": 2013099,
      "법정동코드": 1132010700,
      "지점코드": 11320003,
      "시도시군구명": "서울특별시 도봉구3",
      "name": "서울특별시 도봉구 창동((주)에스엠 부근)",
      "count": 6,
      "사상자수": 6,
      "사망자수": 0,
      "중상자수": 2,
      "경상자수": 2,
      "부상신고자수": 2,
      "lon": 127.0318466,
      "lat": 37.64413104
    },
    {
      "id": 163204,
      "사고다발지ID": 2013099,
      "법정동코드": 1132010700,
      "지점코드": 11320004,
      "시도시군구명": "서울특별시 도봉구4",
      "name": "서울특별시 도봉구 창동(극동방송문화센터 부근)",
      "count": 6,
      "사상자수": 6,
      "사망자수": 0,
      "중상자수": 4,
      "경상자수": 2,
      "부상신고자수": 0,
      "lon": 127.0518213,
      "lat": 37.65355345
    },
    {
      "id": 155207,
      "사고다발지ID": 2013099,
      "법정동코드": 1132010600,
      "지점코드": 11320005,
      "시도시군구명": "서울특별시 도봉구5",
      "name": "서울특별시 도봉구 방학동(동부센트리빌아파트 부근)",
      "count": 6,
      "사상자수": 6,
      "사망자수": 1,
      "중상자수": 2,
      "경상자수": 2,
      "부상신고자수": 1,
      "lon": 127.0391611,
      "lat": 37.66291108
    },
    {
      "id": 161626,
      "사고다발지ID": 2013099,
      "법정동코드": 1132010800,
      "지점코드": 11320006,
      "시도시군구명": "서울특별시 도봉구6",
      "name": "서울특별시 도봉구 도봉동(신도봉사거리 부근)",
      "count": 10,
      "사상자수": 10,
      "사망자수": 0,
      "중상자수": 5,
      "경상자수": 2,
      "부상신고자수": 3,
      "lon": 127.0438812,
      "lat": 37.67134676
    },
    {
      "id": 163205,
      "사고다발지ID": 2013099,
      "법정동코드": 1135010600,
      "지점코드": 11350001,
      "시도시군구명": "서울특별시 노원구1",
      "name": "서울특별시 노원구 중계동(삿갓봉근린공원 부근)",
      "count": 4,
      "사상자수": 5,
      "사망자수": 0,
      "중상자수": 0,
      "경상자수": 4,
      "부상신고자수": 1,
      "lon": 127.076009,
      "lat": 37.6575609
    },
    {
      "id": 155215,
      "사고다발지ID": 2013099,
      "법정동코드": 1135010300,
      "지점코드": 11350002,
      "시도시군구명": "서울특별시 노원구2",
      "name": "서울특별시 노원구 공릉동(중랑구-노원구경계(6) 부근)",
      "count": 4,
      "사상자수": 4,
      "사망자수": 0,
      "중상자수": 1,
      "경상자수": 2,
      "부상신고자수": 1,
      "lon": 127.0759351,
      "lat": 37.61726296
    },
    {
      "id": 163207,
      "사고다발지ID": 2013099,
      "법정동코드": 1135010200,
      "지점코드": 11350003,
      "시도시군구명": "서울특별시 노원구3",
      "name": "서울특별시 노원구 월계동(석계역동_화랑로_진입_1 부근)",
      "count": 4,
      "사상자수": 4,
      "사망자수": 0,
      "중상자수": 1,
      "경상자수": 3,
      "부상신고자수": 0,
      "lon": 127.0672175,
      "lat": 37.61488947
    },
    {
      "id": 155216,
      "사고다발지ID": 2013099,
      "법정동코드": 1135010500,
      "지점코드": 11350004,
      "시도시군구명": "서울특별시 노원구4",
      "name": "서울특별시 노원구 상계동(상계교(동단) 부근)",
      "count": 4,
      "사상자수": 4,
      "사망자수": 0,
      "중상자수": 3,
      "경상자수": 1,
      "부상신고자수": 0,
      "lon": 127.0526044,
      "lat": 37.66169714
    },
    {
      "id": 155212,
      "사고다발지ID": 2013099,
      "법정동코드": 1135010500,
      "지점코드": 11350005,
      "시도시군구명": "서울특별시 노원구5",
      "name": "서울특별시 노원구 상계동(노원역_일반국도3호선_진입_1 부근)",
      "count": 5,
      "사상자수": 5,
      "사망자수": 0,
      "중상자수": 3,
      "경상자수": 2,
      "부상신고자수": 0,
      "lon": 127.0605909,
      "lat": 37.65510362
    },
    {
      "id": 163208,
      "사고다발지ID": 2013099,
      "법정동코드": 1135010500,
      "지점코드": 11350006,
      "시도시군구명": "서울특별시 노원구6",
      "name": "서울특별시 노원구 상계동(부흥빌딩 부근)",
      "count": 5,
      "사상자수": 5,
      "사망자수": 0,
      "중상자수": 3,
      "경상자수": 2,
      "부상신고자수": 0,
      "lon": 127.0561133,
      "lat": 37.67131374
    },
    {
      "id": 155210,
      "사고다발지ID": 2013099,
      "법정동코드": 1135010600,
      "지점코드": 11350007,
      "시도시군구명": "서울특별시 노원구7",
      "name": "서울특별시 노원구 중계동(양지근린공원앞 부근)",
      "count": 6,
      "사상자수": 6,
      "사망자수": 0,
      "중상자수": 2,
      "경상자수": 2,
      "부상신고자수": 2,
      "lon": 127.0759829,
      "lat": 37.6476968
    },
    {
      "id": 155214,
      "사고다발지ID": 2013099,
      "법정동코드": 1135010600,
      "지점코드": 11350008,
      "시도시군구명": "서울특별시 노원구8",
      "name": "서울특별시 노원구 중계동(중계역 부근)",
      "count": 6,
      "사상자수": 6,
      "사망자수": 0,
      "중상자수": 2,
      "경상자수": 4,
      "부상신고자수": 0,
      "lon": 127.0644624,
      "lat": 37.64480593
    },
    {
      "id": 161631,
      "사고다발지ID": 2013099,
      "법정동코드": 1135010500,
      "지점코드": 11350009,
      "시도시군구명": "서울특별시 노원구9",
      "name": "서울특별시 노원구 상계동(상계초등학교_노원길_진출_1 부근)",
      "count": 6,
      "사상자수": 6,
      "사망자수": 0,
      "중상자수": 2,
      "경상자수": 4,
      "부상신고자수": 0,
      "lon": 127.0662328,
      "lat": 37.65849226
    },
    {
      "id": 155234,
      "사고다발지ID": 2013099,
      "법정동코드": 1138010400,
      "지점코드": 11380001,
      "시도시군구명": "서울특별시 은평구1",
      "name": "서울특별시 은평구 갈현동(연신내사거리 부근)",
      "count": 4,
      "사상자수": 4,
      "사망자수": 0,
      "중상자수": 0,
      "경상자수": 2,
      "부상신고자수": 2,
      "lon": 126.9209521,
      "lat": 37.61999656
    },
    {
      "id": 155231,
      "사고다발지ID": 2013099,
      "법정동코드": 1138010200,
      "지점코드": 11380002,
      "시도시군구명": "서울특별시 은평구2",
      "name": "서울특별시 은평구 녹번동(역촌역 부근)",
      "count": 4,
      "사상자수": 4,
      "사망자수": 0,
      "중상자수": 1,
      "경상자수": 3,
      "부상신고자수": 0,
      "lon": 126.9234325,
      "lat": 37.60568727
    },
    {
      "id": 155232,
      "사고다발지ID": 2013099,
      "법정동코드": 1138010800,
      "지점코드": 11380003,
      "시도시군구명": "서울특별시 은평구3",
      "name": "서울특별시 은평구 역촌동(역촌사거리 부근)",
      "count": 4,
      "사상자수": 4,
      "사망자수": 0,
      "중상자수": 1,
      "경상자수": 3,
      "부상신고자수": 0,
      "lon": 126.9203091,
      "lat": 37.60934515
    },
    {
      "id": 163210,
      "사고다발지ID": 2013099,
      "법정동코드": 1138010700,
      "지점코드": 11380004,
      "시도시군구명": "서울특별시 은평구4",
      "name": "서울특별시 은평구 응암동(뉴코리아주유소 부근)",
      "count": 5,
      "사상자수": 5,
      "사망자수": 0,
      "중상자수": 1,
      "경상자수": 4,
      "부상신고자수": 0,
      "lon": 126.9215891,
      "lat": 37.59978928
    },
    {
      "id": 161632,
      "사고다발지ID": 2013099,
      "법정동코드": 1138010900,
      "지점코드": 11380005,
      "시도시군구명": "서울특별시 은평구5",
      "name": "서울특별시 은평구 신사동(새절역 부근)",
      "count": 5,
      "사상자수": 5,
      "사망자수": 0,
      "중상자수": 2,
      "경상자수": 3,
      "부상신고자수": 0,
      "lon": 126.9142081,
      "lat": 37.59336455
    },
    {
      "id": 161923,
      "사고다발지ID": 2013099,
      "법정동코드": 1138010300,
      "지점코드": 11380006,
      "시도시군구명": "서울특별시 은평구6",
      "name": "서울특별시 은평구 불광동(채유병산부인과 부근)",
      "count": 6,
      "사상자수": 6,
      "사망자수": 0,
      "중상자수": 3,
      "경상자수": 3,
      "부상신고자수": 0,
      "lon": 126.9295763,
      "lat": 37.60948307
    },
    {
      "id": 161921,
      "사고다발지ID": 2013099,
      "법정동코드": 1138010800,
      "지점코드": 11380007,
      "시도시군구명": "서울특별시 은평구7",
      "name": "서울특별시 은평구 역촌동(미래마트 부근)",
      "count": 7,
      "사상자수": 8,
      "사망자수": 0,
      "중상자수": 2,
      "경상자수": 6,
      "부상신고자수": 0,
      "lon": 126.9138289,
      "lat": 37.60646198
    },
    {
      "id": 155223,
      "사고다발지ID": 2013099,
      "법정동코드": 1138010400,
      "지점코드": 11380008,
      "시도시군구명": "서울특별시 은평구8",
      "name": "서울특별시 은평구 갈현동(길마독사거리 부근)",
      "count": 9,
      "사상자수": 10,
      "사망자수": 0,
      "중상자수": 2,
      "경상자수": 6,
      "부상신고자수": 2,
      "lon": 126.9176145,
      "lat": 37.61567505
    },
    {
      "id": 163211,
      "사고다발지ID": 2013099,
      "법정동코드": 1138010800,
      "지점코드": 11380009,
      "시도시군구명": "서울특별시 은평구9",
      "name": "서울특별시 은평구 역촌동(동명한의원 부근)",
      "count": 9,
      "사상자수": 9,
      "사망자수": 0,
      "중상자수": 3,
      "경상자수": 2,
      "부상신고자수": 4,
      "lon": 126.9149585,
      "lat": 37.59936579
    },
    {
      "id": 163212,
      "사고다발지ID": 2013099,
      "법정동코드": 1138010400,
      "지점코드": 11380010,
      "시도시군구명": "서울특별시 은평구10",
      "name": "서울특별시 은평구 갈현동(구산역 부근)",
      "count": 9,
      "사상자수": 9,
      "사망자수": 0,
      "중상자수": 3,
      "경상자수": 5,
      "부상신고자수": 1,
      "lon": 126.9165308,
      "lat": 37.61177479
    },
    {
      "id": 155242,
      "사고다발지ID": 2013099,
      "법정동코드": 1144011100,
      "지점코드": 11440001,
      "시도시군구명": "서울특별시 마포구1",
      "name": "서울특별시 마포구 신수동(서강고시원 부근)",
      "count": 4,
      "사상자수": 6,
      "사망자수": 0,
      "중상자수": 4,
      "경상자수": 1,
      "부상신고자수": 1,
      "lon": 126.9387789,
      "lat": 37.5494951
    },
    {
      "id": 155240,
      "사고다발지ID": 2013099,
      "법정동코드": 1144011500,
      "지점코드": 11440002,
      "시도시군구명": "서울특별시 마포구2",
      "name": "서울특별시 마포구 상수동(홍익초교 부근)",
      "count": 5,
      "사상자수": 5,
      "사망자수": 0,
      "중상자수": 1,
      "경상자수": 2,
      "부상신고자수": 2,
      "lon": 126.9231201,
      "lat": 37.5502509
    },
    {
      "id": 161926,
      "사고다발지ID": 2013099,
      "법정동코드": 1144011400,
      "지점코드": 11440003,
      "시도시군구명": "서울특별시 마포구3",
      "name": "서울특별시 마포구 창전동(광흥창역 부근)",
      "count": 5,
      "사상자수": 5,
      "사망자수": 0,
      "중상자수": 1,
      "경상자수": 3,
      "부상신고자수": 1,
      "lon": 126.9317204,
      "lat": 37.5478133
    },
    {
      "id": 155244,
      "사고다발지ID": 2013099,
      "법정동코드": 1144012500,
      "지점코드": 11440004,
      "시도시군구명": "서울특별시 마포구4",
      "name": "서울특별시 마포구 성산동(망원2주민센터 부근)",
      "count": 5,
      "사상자수": 5,
      "사망자수": 0,
      "중상자수": 2,
      "경상자수": 2,
      "부상신고자수": 1,
      "lon": 126.905175,
      "lat": 37.56129731
    },
    {
      "id": 155243,
      "사고다발지ID": 2013099,
      "법정동코드": 1144012500,
      "지점코드": 11440005,
      "시도시군구명": "서울특별시 마포구5",
      "name": "서울특별시 마포구 성산동(평강교회 부근)",
      "count": 5,
      "사상자수": 6,
      "사망자수": 0,
      "중상자수": 3,
      "경상자수": 2,
      "부상신고자수": 1,
      "lon": 126.9021783,
      "lat": 37.56487921
    },
    {
      "id": 161927,
      "사고다발지ID": 2013099,
      "법정동코드": 1144012400,
      "지점코드": 11440006,
      "시도시군구명": "서울특별시 마포구6",
      "name": "서울특별시 마포구 연남동(김영만치과 부근)",
      "count": 6,
      "사상자수": 6,
      "사망자수": 0,
      "중상자수": 3,
      "경상자수": 0,
      "부상신고자수": 3,
      "lon": 126.92015,
      "lat": 37.55480979
    },
    {
      "id": 161928,
      "사고다발지ID": 2013099,
      "법정동코드": 1144012400,
      "지점코드": 11440007,
      "시도시군구명": "서울특별시 마포구7",
      "name": "서울특별시 마포구 연남동(신촌전화국 부근)",
      "count": 9,
      "사상자수": 9,
      "사망자수": 0,
      "중상자수": 4,
      "경상자수": 3,
      "부상신고자수": 2,
      "lon": 126.9242112,
      "lat": 37.55875007
    },
    {
      "id": 161936,
      "사고다발지ID": 2013099,
      "법정동코드": 1147010300,
      "지점코드": 11470001,
      "시도시군구명": "서울특별시 양천구1",
      "name": "서울특별시 양천구 신월동(화곡고가사거리_강서로_진출_1 부근)",
      "count": 4,
      "사상자수": 4,
      "사망자수": 0,
      "중상자수": 1,
      "경상자수": 2,
      "부상신고자수": 1,
      "lon": 126.8492699,
      "lat": 37.52754629
    },
    {
      "id": 155525,
      "사고다발지ID": 2013099,
      "법정동코드": 1147010100,
      "지점코드": 11470002,
      "시도시군구명": "서울특별시 양천구2",
      "name": "서울특별시 양천구 신정동(목동9-10단지 부근)",
      "count": 4,
      "사상자수": 4,
      "사망자수": 0,
      "중상자수": 3,
      "경상자수": 0,
      "부상신고자수": 1,
      "lon": 126.8622234,
      "lat": 37.51638488
    },
    {
      "id": 155524,
      "사고다발지ID": 2013099,
      "법정동코드": 1147010200,
      "지점코드": 11470003,
      "시도시군구명": "서울특별시 양천구3",
      "name": "서울특별시 양천구 목동(외환은행강서지점 부근)",
      "count": 4,
      "사상자수": 5,
      "사망자수": 0,
      "중상자수": 4,
      "경상자수": 0,
      "부상신고자수": 1,
      "lon": 126.8714762,
      "lat": 37.54697034
    },
    {
      "id": 139608,
      "사고다발지ID": 2013099,
      "법정동코드": 1147010200,
      "지점코드": 11470004,
      "시도시군구명": "서울특별시 양천구4",
      "name": "서울특별시 양천구 목동(목동1.2단지 부근)",
      "count": 5,
      "사상자수": 5,
      "사망자수": 0,
      "중상자수": 0,
      "경상자수": 4,
      "부상신고자수": 1,
      "lon": 126.8804565,
      "lat": 37.53664382
    },
    {
      "id": 161930,
      "사고다발지ID": 2013099,
      "법정동코드": 1147010100,
      "지점코드": 11470005,
      "시도시군구명": "서울특별시 양천구5",
      "name": "서울특별시 양천구 신정동(동은빌딩 부근)",
      "count": 6,
      "사상자수": 6,
      "사망자수": 0,
      "중상자수": 0,
      "경상자수": 4,
      "부상신고자수": 2,
      "lon": 126.8575825,
      "lat": 37.52124331
    },
    {
      "id": 161931,
      "사고다발지ID": 2013099,
      "법정동코드": 1147010100,
      "지점코드": 11470006,
      "시도시군구명": "서울특별시 양천구6",
      "name": "서울특별시 양천구 신정동(양천장애인종합복지관 부근)",
      "count": 6,
      "사상자수": 6,
      "사망자수": 0,
      "중상자수": 1,
      "경상자수": 4,
      "부상신고자수": 1,
      "lon": 126.8693923,
      "lat": 37.51986743
    },
    {
      "id": 155245,
      "사고다발지ID": 2013099,
      "법정동코드": 1147010200,
      "지점코드": 11470007,
      "시도시군구명": "서울특별시 양천구7",
      "name": "서울특별시 양천구 목동(목동2.3단지 부근)",
      "count": 6,
      "사상자수": 6,
      "사망자수": 0,
      "중상자수": 1,
      "경상자수": 5,
      "부상신고자수": 0,
      "lon": 126.8769397,
      "lat": 37.53489751
    },
    {
      "id": 161932,
      "사고다발지ID": 2013099,
      "법정동코드": 1147010200,
      "지점코드": 11470008,
      "시도시군구명": "서울특별시 양천구8",
      "name": "서울특별시 양천구 목동(오목교역 부근)",
      "count": 6,
      "사상자수": 6,
      "사망자수": 1,
      "중상자수": 3,
      "경상자수": 2,
      "부상신고자수": 0,
      "lon": 126.8756431,
      "lat": 37.5248383
    },
    {
      "id": 161933,
      "사고다발지ID": 2013099,
      "법정동코드": 1147010300,
      "지점코드": 11470009,
      "시도시군구명": "서울특별시 양천구9",
      "name": "서울특별시 양천구 신월동(신월정수사업소앞 부근)",
      "count": 7,
      "사상자수": 7,
      "사망자수": 0,
      "중상자수": 1,
      "경상자수": 6,
      "부상신고자수": 0,
      "lon": 126.8335525,
      "lat": 37.52999714
    },
    {
      "id": 163213,
      "사고다발지ID": 2013099,
      "법정동코드": 1147010100,
      "지점코드": 11470010,
      "시도시군구명": "서울특별시 양천구10",
      "name": "서울특별시 양천구 신정동(홍익병원앞_등촌로_진입_1 부근)",
      "count": 7,
      "사상자수": 7,
      "사망자수": 0,
      "중상자수": 3,
      "경상자수": 3,
      "부상신고자수": 1,
      "lon": 126.8643737,
      "lat": 37.53029767
    },
    {
      "id": 161935,
      "사고다발지ID": 2013099,
      "법정동코드": 1150010200,
      "지점코드": 11500001,
      "시도시군구명": "서울특별시 강서구1",
      "name": "서울특별시 강서구 등촌동(등촌삼거리 부근)",
      "count": 4,
      "사상자수": 4,
      "사망자수": 0,
      "중상자수": 0,
      "경상자수": 4,
      "부상신고자수": 0,
      "lon": 126.8646468,
      "lat": 37.55150946
    },
    {
      "id": 155845,
      "사고다발지ID": 2013099,
      "법정동코드": 1150010200,
      "지점코드": 11500002,
      "시도시군구명": "서울특별시 강서구2",
      "name": "서울특별시 강서구 등촌동(가양역사거리 부근)",
      "count": 4,
      "사상자수": 5,
      "사망자수": 0,
      "중상자수": 0,
      "경상자수": 5,
      "부상신고자수": 0,
      "lon": 126.8551785,
      "lat": 37.56089137
    },
    {
      "id": 155843,
      "사고다발지ID": 2013099,
      "법정동코드": 1150010600,
      "지점코드": 11500003,
      "시도시군구명": "서울특별시 강서구3",
      "name": "서울특별시 강서구 내발산동(그랜드마트 부근)",
      "count": 4,
      "사상자수": 4,
      "사망자수": 0,
      "중상자수": 3,
      "경상자수": 1,
      "부상신고자수": 0,
      "lon": 126.8384752,
      "lat": 37.55952619
    },
    {
      "id": 155847,
      "사고다발지ID": 2013099,
      "법정동코드": 1150010300,
      "지점코드": 11500004,
      "시도시군구명": "서울특별시 강서구4",
      "name": "서울특별시 강서구 화곡동(화곡역_화곡로_진출 부근)",
      "count": 6,
      "사상자수": 6,
      "사망자수": 0,
      "중상자수": 3,
      "경상자수": 3,
      "부상신고자수": 0,
      "lon": 126.8412462,
      "lat": 37.54202377
    },
    {
      "id": 161937,
      "사고다발지ID": 2013099,
      "법정동코드": 1150010300,
      "지점코드": 11500005,
      "시도시군구명": "서울특별시 강서구5",
      "name": "서울특별시 강서구 화곡동(강서구청입구_일반국도6호선_진 부근)",
      "count": 6,
      "사상자수": 6,
      "사망자수": 0,
      "중상자수": 3,
      "경상자수": 3,
      "부상신고자수": 0,
      "lon": 126.8536258,
      "lat": 37.55521561
    },
    {
      "id": 155848,
      "사고다발지ID": 2013099,
      "법정동코드": 1153010800,
      "지점코드": 11530001,
      "시도시군구명": "서울특별시 구로구1",
      "name": "서울특별시 구로구 오류동(독도참치 부근)",
      "count": 4,
      "사상자수": 4,
      "사망자수": 0,
      "중상자수": 0,
      "경상자수": 4,
      "부상신고자수": 0,
      "lon": 126.8439491,
      "lat": 37.49592418
    },
    {
      "id": 155856,
      "사고다발지ID": 2013099,
      "법정동코드": 1153010100,
      "지점코드": 11530002,
      "시도시군구명": "서울특별시 구로구2",
      "name": "서울특별시 구로구 신도림동(월드프라자 부근)",
      "count": 4,
      "사상자수": 4,
      "사망자수": 0,
      "중상자수": 1,
      "경상자수": 3,
      "부상신고자수": 0,
      "lon": 126.8763156,
      "lat": 37.50622138
    },
    {
      "id": 155850,
      "사고다발지ID": 2013099,
      "법정동코드": 1153010100,
      "지점코드": 11530003,
      "시도시군구명": "서울특별시 구로구3",
      "name": "서울특별시 구로구 신도림동(스카이뷰아파트 부근)",
      "count": 5,
      "사상자수": 5,
      "사망자수": 0,
      "중상자수": 3,
      "경상자수": 0,
      "부상신고자수": 2,
      "lon": 126.8853234,
      "lat": 37.50677937
    },
    {
      "id": 156162,
      "사고다발지ID": 2013099,
      "법정동코드": 1153010200,
      "지점코드": 11530004,
      "시도시군구명": "서울특별시 구로구4",
      "name": "서울특별시 구로구 구로동(구로1교(남단) 부근)",
      "count": 5,
      "사상자수": 5,
      "사망자수": 0,
      "중상자수": 3,
      "경상자수": 2,
      "부상신고자수": 0,
      "lon": 126.8970221,
      "lat": 37.48686874
    },
    {
      "id": 155854,
      "사고다발지ID": 2013099,
      "법정동코드": 1153010200,
      "지점코드": 11530005,
      "시도시군구명": "서울특별시 구로구5",
      "name": "서울특별시 구로구 구로동(Ak플라자 부근)",
      "count": 5,
      "사상자수": 5,
      "사망자수": 0,
      "중상자수": 4,
      "경상자수": 1,
      "부상신고자수": 0,
      "lon": 126.8820068,
      "lat": 37.50145956
    },
    {
      "id": 163214,
      "사고다발지ID": 2013099,
      "법정동코드": 1153010200,
      "지점코드": 11530006,
      "시도시군구명": "서울특별시 구로구6",
      "name": "서울특별시 구로구 구로동(신구로주유소_가마산길_진출 부근)",
      "count": 6,
      "사상자수": 6,
      "사망자수": 0,
      "중상자수": 1,
      "경상자수": 4,
      "부상신고자수": 1,
      "lon": 126.8926372,
      "lat": 37.49683194
    },
    {
      "id": 139903,
      "사고다발지ID": 2013099,
      "법정동코드": 1153010200,
      "지점코드": 11530007,
      "시도시군구명": "서울특별시 구로구7",
      "name": "서울특별시 구로구 구로동(구로이화우성아파트_구로큰길_진 부근)",
      "count": 6,
      "사상자수": 6,
      "사망자수": 0,
      "중상자수": 1,
      "경상자수": 4,
      "부상신고자수": 1,
      "lon": 126.8918352,
      "lat": 37.4916264
    },
    {
      "id": 156163,
      "사고다발지ID": 2013099,
      "법정동코드": 1153010200,
      "지점코드": 11530008,
      "시도시군구명": "서울특별시 구로구8",
      "name": "서울특별시 구로구 구로동(새솔금호아파트 부근)",
      "count": 8,
      "사상자수": 8,
      "사망자수": 0,
      "중상자수": 3,
      "경상자수": 4,
      "부상신고자수": 1,
      "lon": 126.890915,
      "lat": 37.49993364
    },
    {
      "id": 155853,
      "사고다발지ID": 2013099,
      "법정동코드": 1153010700,
      "지점코드": 11530009,
      "시도시군구명": "서울특별시 구로구9",
      "name": "서울특별시 구로구 개봉동(개봉고가차도 부근)",
      "count": 8,
      "사상자수": 8,
      "사망자수": 0,
      "중상자수": 4,
      "경상자수": 3,
      "부상신고자수": 1,
      "lon": 126.8565793,
      "lat": 37.49378594
    },
    {
      "id": 163215,
      "사고다발지ID": 2013099,
      "법정동코드": 1154510100,
      "지점코드": 11545001,
      "시도시군구명": "서울특별시 금천구1",
      "name": "서울특별시 금천구 가산동(신평대일타운 부근)",
      "count": 4,
      "사상자수": 4,
      "사망자수": 0,
      "중상자수": 2,
      "경상자수": 2,
      "부상신고자수": 0,
      "lon": 126.8927595,
      "lat": 37.4762429
    },
    {
      "id": 161939,
      "사고다발지ID": 2013099,
      "법정동코드": 1154510200,
      "지점코드": 11545002,
      "시도시군구명": "서울특별시 금천구2",
      "name": "서울특별시 금천구 독산동(구로전화국 부근)",
      "count": 5,
      "사상자수": 5,
      "사망자수": 0,
      "중상자수": 0,
      "경상자수": 4,
      "부상신고자수": 1,
      "lon": 126.9035024,
      "lat": 37.47930163
    },
    {
      "id": 156168,
      "사고다발지ID": 2013099,
      "법정동코드": 1154510300,
      "지점코드": 11545003,
      "시도시군구명": "서울특별시 금천구3",
      "name": "서울특별시 금천구 시흥동(갑오포장 부근)",
      "count": 5,
      "사상자수": 5,
      "사망자수": 0,
      "중상자수": 1,
      "경상자수": 4,
      "부상신고자수": 0,
      "lon": 126.9038104,
      "lat": 37.44543001
    },
    {
      "id": 156173,
      "사고다발지ID": 2013099,
      "법정동코드": 1154510300,
      "지점코드": 11545004,
      "시도시군구명": "서울특별시 금천구4",
      "name": "서울특별시 금천구 시흥동(대명시장B 부근)",
      "count": 5,
      "사상자수": 8,
      "사망자수": 0,
      "중상자수": 5,
      "경상자수": 2,
      "부상신고자수": 1,
      "lon": 126.90314,
      "lat": 37.45398971
    },
    {
      "id": 156165,
      "사고다발지ID": 2013099,
      "법정동코드": 1154510200,
      "지점코드": 11545005,
      "시도시군구명": "서울특별시 금천구5",
      "name": "서울특별시 금천구 독산동(독산1동새마을금고 부근)",
      "count": 6,
      "사상자수": 6,
      "사망자수": 0,
      "중상자수": 1,
      "경상자수": 5,
      "부상신고자수": 0,
      "lon": 126.8967527,
      "lat": 37.47197455
    },
    {
      "id": 163216,
      "사고다발지ID": 2013099,
      "법정동코드": 1154510300,
      "지점코드": 11545006,
      "시도시군구명": "서울특별시 금천구6",
      "name": "서울특별시 금천구 시흥동(시흥지구대 부근)",
      "count": 6,
      "사상자수": 6,
      "사망자수": 0,
      "중상자수": 1,
      "경상자수": 5,
      "부상신고자수": 0,
      "lon": 126.8995526,
      "lat": 37.45324481
    },
    {
      "id": 163217,
      "사고다발지ID": 2013099,
      "법정동코드": 1156013200,
      "지점코드": 11560001,
      "시도시군구명": "서울특별시 영등포구1",
      "name": "서울특별시 영등포구 신길동(썬프라자_신길로_진입 부근)",
      "count": 4,
      "사상자수": 4,
      "사망자수": 0,
      "중상자수": 1,
      "경상자수": 3,
      "부상신고자수": 0,
      "lon": 126.9085702,
      "lat": 37.49630617
    },
    {
      "id": 156182,
      "사고다발지ID": 2013099,
      "법정동코드": 1156012500,
      "지점코드": 11560002,
      "시도시군구명": "서울특별시 영등포구2",
      "name": "서울특별시 영등포구 양평동1가(염창IC5 부근)",
      "count": 4,
      "사상자수": 4,
      "사망자수": 0,
      "중상자수": 3,
      "경상자수": 1,
      "부상신고자수": 0,
      "lon": 126.8792269,
      "lat": 37.55266368
    },
    {
      "id": 156175,
      "사고다발지ID": 2013099,
      "법정동코드": 1156010300,
      "지점코드": 11560003,
      "시도시군구명": "서울특별시 영등포구3",
      "name": "서울특별시 영등포구 영등포동2가(영등포로터리_영등포로_진입_2 부근)",
      "count": 5,
      "사상자수": 5,
      "사망자수": 0,
      "중상자수": 0,
      "경상자수": 5,
      "부상신고자수": 0,
      "lon": 126.910886,
      "lat": 37.51871006
    },
    {
      "id": 163219,
      "사고다발지ID": 2013099,
      "법정동코드": 1156013300,
      "지점코드": 11560004,
      "시도시군구명": "서울특별시 영등포구4",
      "name": "서울특별시 영등포구 대림동(대림우성아파트사거리_도림로_진 부근)",
      "count": 5,
      "사상자수": 7,
      "사망자수": 0,
      "중상자수": 0,
      "경상자수": 5,
      "부상신고자수": 2,
      "lon": 126.8975468,
      "lat": 37.49511656
    },
    {
      "id": 156174,
      "사고다발지ID": 2013099,
      "법정동코드": 1156013000,
      "지점코드": 11560005,
      "시도시군구명": "서울특별시 영등포구5",
      "name": "서울특별시 영등포구 양평동6가(서부간선도로-양평로램프(3) 부근)",
      "count": 5,
      "사상자수": 5,
      "사망자수": 0,
      "중상자수": 1,
      "경상자수": 3,
      "부상신고자수": 1,
      "lon": 126.8879962,
      "lat": 37.5423928
    },
    {
      "id": 156181,
      "사고다발지ID": 2013099,
      "법정동코드": 1156012700,
      "지점코드": 11560006,
      "시도시군구명": "서울특별시 영등포구6",
      "name": "서울특별시 영등포구 양평동3가(경인고속입구_선유로_진입_1 부근)",
      "count": 5,
      "사상자수": 6,
      "사망자수": 0,
      "중상자수": 1,
      "경상자수": 5,
      "부상신고자수": 0,
      "lon": 126.8933082,
      "lat": 37.5302258
    },
    {
      "id": 163220,
      "사고다발지ID": 2013099,
      "법정동코드": 1156013300,
      "지점코드": 11560007,
      "시도시군구명": "서울특별시 영등포구7",
      "name": "서울특별시 영등포구 대림동(서부간선도로-도림천로램프(1) 부근)",
      "count": 5,
      "사상자수": 6,
      "사망자수": 0,
      "중상자수": 2,
      "경상자수": 2,
      "부상신고자수": 2,
      "lon": 126.8819375,
      "lat": 37.51627246
    },
    {
      "id": 156481,
      "사고다발지ID": 2013099,
      "법정동코드": 1156011000,
      "지점코드": 11560008,
      "시도시군구명": "서울특별시 영등포구8",
      "name": "서울특별시 영등포구 여의도동(마포대교남단_여의서로_진입 부근)",
      "count": 5,
      "사상자수": 6,
      "사망자수": 0,
      "중상자수": 2,
      "경상자수": 3,
      "부상신고자수": 1,
      "lon": 126.929061,
      "lat": 37.53090626
    },
    {
      "id": 156185,
      "사고다발지ID": 2013099,
      "법정동코드": 1156013200,
      "지점코드": 11560009,
      "시도시군구명": "서울특별시 영등포구9",
      "name": "서울특별시 영등포구 신길동(사러가시장앞 부근)",
      "count": 5,
      "사상자수": 6,
      "사망자수": 0,
      "중상자수": 2,
      "경상자수": 4,
      "부상신고자수": 0,
      "lon": 126.9111094,
      "lat": 37.50686965
    },
    {
      "id": 156183,
      "사고다발지ID": 2013099,
      "법정동코드": 1156011400,
      "지점코드": 11560010,
      "시도시군구명": "서울특별시 영등포구10",
      "name": "서울특별시 영등포구 당산동4가(영등포구청 부근)",
      "count": 5,
      "사상자수": 5,
      "사망자수": 0,
      "중상자수": 3,
      "경상자수": 1,
      "부상신고자수": 1,
      "lon": 126.8978572,
      "lat": 37.52784691
    },
    {
      "id": 156180,
      "사고다발지ID": 2013099,
      "법정동코드": 1156011000,
      "지점코드": 11560011,
      "시도시군구명": "서울특별시 영등포구11",
      "name": "서울특별시 영등포구 여의도동(여의하류IC20 부근)",
      "count": 6,
      "사상자수": 7,
      "사망자수": 0,
      "중상자수": 1,
      "경상자수": 6,
      "부상신고자수": 0,
      "lon": 126.9245129,
      "lat": 37.53259149
    },
    {
      "id": 163221,
      "사고다발지ID": 2013099,
      "법정동코드": 1156013300,
      "지점코드": 11560012,
      "시도시군구명": "서울특별시 영등포구12",
      "name": "서울특별시 영등포구 대림동(대림3동사거리_가마산길_진출_2 부근)",
      "count": 6,
      "사상자수": 6,
      "사망자수": 0,
      "중상자수": 2,
      "경상자수": 3,
      "부상신고자수": 1,
      "lon": 126.8970579,
      "lat": 37.49996245
    },
    {
      "id": 161941,
      "사고다발지ID": 2013099,
      "법정동코드": 1156013200,
      "지점코드": 11560013,
      "시도시군구명": "서울특별시 영등포구13",
      "name": "서울특별시 영등포구 신길동(영등포소방서 부근)",
      "count": 6,
      "사상자수": 6,
      "사망자수": 1,
      "중상자수": 2,
      "경상자수": 2,
      "부상신고자수": 1,
      "lon": 126.9023556,
      "lat": 37.49651225
    },
    {
      "id": 156192,
      "사고다발지ID": 2013099,
      "법정동코드": 1156011000,
      "지점코드": 11560014,
      "시도시군구명": "서울특별시 영등포구14",
      "name": "서울특별시 영등포구 여의도동(여의동로삼거리 부근)",
      "count": 7,
      "사상자수": 8,
      "사망자수": 0,
      "중상자수": 2,
      "경상자수": 6,
      "부상신고자수": 0,
      "lon": 126.9324883,
      "lat": 37.52862366
    },
    {
      "id": 156483,
      "사고다발지ID": 2013099,
      "법정동코드": 1159010900,
      "지점코드": 11590001,
      "시도시군구명": "서울특별시 동작구1",
      "name": "서울특별시 동작구 신대방동(보라매공원입구_대방로_진출_1 부근)",
      "count": 6,
      "사상자수": 6,
      "사망자수": 0,
      "중상자수": 3,
      "경상자수": 2,
      "부상신고자수": 1,
      "lon": 126.9183929,
      "lat": 37.49754653
    },
    {
      "id": 156489,
      "사고다발지ID": 2013099,
      "법정동코드": 1162010200,
      "지점코드": 11620001,
      "시도시군구명": "서울특별시 관악구1",
      "name": "서울특별시 관악구 신림동(금천구-관악구경계(4) 부근)",
      "count": 4,
      "사상자수": 4,
      "사망자수": 0,
      "중상자수": 0,
      "경상자수": 4,
      "부상신고자수": 0,
      "lon": 126.9109694,
      "lat": 37.48159623
    },
    {
      "id": 156484,
      "사고다발지ID": 2013099,
      "법정동코드": 1162010200,
      "지점코드": 11620002,
      "시도시군구명": "서울특별시 관악구2",
      "name": "서울특별시 관악구 신림동(SK허브그린 부근)",
      "count": 4,
      "사상자수": 4,
      "사망자수": 0,
      "중상자수": 1,
      "경상자수": 1,
      "부상신고자수": 2,
      "lon": 126.9307271,
      "lat": 37.48545167
    },
    {
      "id": 139462,
      "사고다발지ID": 2013099,
      "법정동코드": 1162010200,
      "지점코드": 11620003,
      "시도시군구명": "서울특별시 관악구3",
      "name": "서울특별시 관악구 신림동(신림1교(북단) 부근)",
      "count": 4,
      "사상자수": 4,
      "사망자수": 0,
      "중상자수": 1,
      "경상자수": 1,
      "부상신고자수": 2,
      "lon": 126.9320894,
      "lat": 37.47889229
    },
    {
      "id": 163222,
      "사고다발지ID": 2013099,
      "법정동코드": 1162010100,
      "지점코드": 11620004,
      "시도시군구명": "서울특별시 관악구4",
      "name": "서울특별시 관악구 봉천동(낙성사거리 부근)",
      "count": 4,
      "사상자수": 4,
      "사망자수": 0,
      "중상자수": 1,
      "경상자수": 3,
      "부상신고자수": 0,
      "lon": 126.9594526,
      "lat": 37.47778368
    },
    {
      "id": 156486,
      "사고다발지ID": 2013099,
      "법정동코드": 1162010100,
      "지점코드": 11620005,
      "시도시군구명": "서울특별시 관악구5",
      "name": "서울특별시 관악구 봉천동(봉천본동농협앞 부근)",
      "count": 4,
      "사상자수": 4,
      "사망자수": 0,
      "중상자수": 2,
      "경상자수": 2,
      "부상신고자수": 0,
      "lon": 126.9462196,
      "lat": 37.48235943
    },
    {
      "id": 163223,
      "사고다발지ID": 2013099,
      "법정동코드": 1162010100,
      "지점코드": 11620006,
      "시도시군구명": "서울특별시 관악구6",
      "name": "서울특별시 관악구 봉천동(당곡사거리 부근)",
      "count": 5,
      "사상자수": 5,
      "사망자수": 0,
      "중상자수": 1,
      "경상자수": 2,
      "부상신고자수": 2,
      "lon": 126.9286565,
      "lat": 37.48904928
    },
    {
      "id": 156487,
      "사고다발지ID": 2013099,
      "법정동코드": 1162010200,
      "지점코드": 11620007,
      "시도시군구명": "서울특별시 관악구7",
      "name": "서울특별시 관악구 신림동(양지빌딩 부근)",
      "count": 7,
      "사상자수": 7,
      "사망자수": 0,
      "중상자수": 3,
      "경상자수": 2,
      "부상신고자수": 2,
      "lon": 126.914119,
      "lat": 37.48345863
    },
    {
      "id": 156490,
      "사고다발지ID": 2013099,
      "법정동코드": 1162010100,
      "지점코드": 11620008,
      "시도시군구명": "서울특별시 관악구8",
      "name": "서울특별시 관악구 봉천동(롯데백화점앞(관악점) 부근)",
      "count": 8,
      "사상자수": 8,
      "사망자수": 0,
      "중상자수": 4,
      "경상자수": 3,
      "부상신고자수": 1,
      "lon": 126.9240783,
      "lat": 37.48967092
    },
    {
      "id": 161942,
      "사고다발지ID": 2013099,
      "법정동코드": 1165010700,
      "지점코드": 11650001,
      "시도시군구명": "서울특별시 서초구1",
      "name": "서울특별시 서초구 반포동(이수교차로_사평로_진입 부근)",
      "count": 6,
      "사상자수": 6,
      "사망자수": 0,
      "중상자수": 2,
      "경상자수": 4,
      "부상신고자수": 0,
      "lon": 126.9856822,
      "lat": 37.49905911
    },
    {
      "id": 156493,
      "사고다발지ID": 2013099,
      "법정동코드": 1165010700,
      "지점코드": 11650002,
      "시도시군구명": "서울특별시 서초구2",
      "name": "서울특별시 서초구 반포동(한강홍수통제소 부근)",
      "count": 6,
      "사상자수": 7,
      "사망자수": 0,
      "중상자수": 4,
      "경상자수": 3,
      "부상신고자수": 0,
      "lon": 126.9799104,
      "lat": 37.50510471
    },
    {
      "id": 156494,
      "사고다발지ID": 2013099,
      "법정동코드": 1168010400,
      "지점코드": 11680001,
      "시도시군구명": "서울특별시 강남구1",
      "name": "서울특별시 강남구 청담동(송담빌딩 부근)",
      "count": 4,
      "사상자수": 4,
      "사망자수": 0,
      "중상자수": 0,
      "경상자수": 3,
      "부상신고자수": 1,
      "lon": 127.0483936,
      "lat": 37.52428874
    },
    {
      "id": 156495,
      "사고다발지ID": 2013099,
      "법정동코드": 1168010300,
      "지점코드": 11680002,
      "시도시군구명": "서울특별시 강남구2",
      "name": "서울특별시 강남구 개포동(서울강남우체국 부근)",
      "count": 4,
      "사상자수": 4,
      "사망자수": 0,
      "중상자수": 1,
      "경상자수": 2,
      "부상신고자수": 1,
      "lon": 127.0769458,
      "lat": 37.49313827
    },
    {
      "id": 139705,
      "사고다발지ID": 2013099,
      "법정동코드": 1168010800,
      "지점코드": 11680003,
      "시도시군구명": "서울특별시 강남구3",
      "name": "서울특별시 강남구 논현동(논현역 부근)",
      "count": 4,
      "사상자수": 4,
      "사망자수": 0,
      "중상자수": 1,
      "경상자수": 2,
      "부상신고자수": 1,
      "lon": 127.0215056,
      "lat": 37.51113326
    },
    {
      "id": 156802,
      "사고다발지ID": 2013099,
      "법정동코드": 1168011500,
      "지점코드": 11680004,
      "시도시군구명": "서울특별시 강남구4",
      "name": "서울특별시 강남구 수서동(수서삼익아파트4단지상가앞 부근)",
      "count": 5,
      "사상자수": 5,
      "사망자수": 0,
      "중상자수": 1,
      "경상자수": 3,
      "부상신고자수": 1,
      "lon": 127.1015035,
      "lat": 37.48821013
    },
    {
      "id": 156803,
      "사고다발지ID": 2013099,
      "법정동코드": 1168011800,
      "지점코드": 11680005,
      "시도시군구명": "서울특별시 강남구5",
      "name": "서울특별시 강남구 도곡동(매봉역 부근)",
      "count": 5,
      "사상자수": 5,
      "사망자수": 0,
      "중상자수": 3,
      "경상자수": 2,
      "부상신고자수": 0,
      "lon": 127.0450153,
      "lat": 37.48610474
    },
    {
      "id": 163224,
      "사고다발지ID": 2013099,
      "법정동코드": 1171010300,
      "지점코드": 11710001,
      "시도시군구명": "서울특별시 송파구1",
      "name": "서울특별시 송파구 풍납동(강동구청역 부근)",
      "count": 4,
      "사상자수": 4,
      "사망자수": 0,
      "중상자수": 0,
      "경상자수": 4,
      "부상신고자수": 0,
      "lon": 127.1206914,
      "lat": 37.53053048
    },
    {
      "id": 156809,
      "사고다발지ID": 2013099,
      "법정동코드": 1171010700,
      "지점코드": 11710002,
      "시도시군구명": "서울특별시 송파구2",
      "name": "서울특별시 송파구 가락동(송파우체국 부근)",
      "count": 4,
      "사상자수": 4,
      "사망자수": 0,
      "중상자수": 1,
      "경상자수": 3,
      "부상신고자수": 0,
      "lon": 127.1282437,
      "lat": 37.50184838
    },
    {
      "id": 156814,
      "사고다발지ID": 2013099,
      "법정동코드": 1171011200,
      "지점코드": 11710003,
      "시도시군구명": "서울특별시 송파구3",
      "name": "서울특별시 송파구 오금동(서울개롱초등학교 부근)",
      "count": 4,
      "사상자수": 4,
      "사망자수": 0,
      "중상자수": 2,
      "경상자수": 2,
      "부상신고자수": 0,
      "lon": 127.1408828,
      "lat": 37.4979441
    },
    {
      "id": 157121,
      "사고다발지ID": 2013099,
      "법정동코드": 1171010700,
      "지점코드": 11710004,
      "시도시군구명": "서울특별시 송파구4",
      "name": "서울특별시 송파구 가락동(문정동우체국 부근)",
      "count": 4,
      "사상자수": 4,
      "사망자수": 0,
      "중상자수": 3,
      "경상자수": 1,
      "부상신고자수": 0,
      "lon": 127.1109561,
      "lat": 37.49173426
    },
    {
      "id": 161947,
      "사고다발지ID": 2013099,
      "법정동코드": 1171010100,
      "지점코드": 11710005,
      "시도시군구명": "서울특별시 송파구5",
      "name": "서울특별시 송파구 잠실동(우남빌딩 부근)",
      "count": 5,
      "사상자수": 6,
      "사망자수": 0,
      "중상자수": 1,
      "경상자수": 5,
      "부상신고자수": 0,
      "lon": 127.0781988,
      "lat": 37.50616418
    },
    {
      "id": 156807,
      "사고다발지ID": 2013099,
      "법정동코드": 1171011400,
      "지점코드": 11710006,
      "시도시군구명": "서울특별시 송파구6",
      "name": "서울특별시 송파구 마천동(서림빌딩 부근)",
      "count": 5,
      "사상자수": 5,
      "사망자수": 0,
      "중상자수": 2,
      "경상자수": 2,
      "부상신고자수": 1,
      "lon": 127.1477772,
      "lat": 37.50031245
    },
    {
      "id": 156810,
      "사고다발지ID": 2013099,
      "법정동코드": 1171010400,
      "지점코드": 11710007,
      "시도시군구명": "서울특별시 송파구7",
      "name": "서울특별시 송파구 송파동(가락대림아파트 부근)",
      "count": 5,
      "사상자수": 5,
      "사망자수": 0,
      "중상자수": 2,
      "경상자수": 3,
      "부상신고자수": 0,
      "lon": 127.1182634,
      "lat": 37.49942171
    },
    {
      "id": 157125,
      "사고다발지ID": 2013099,
      "법정동코드": 1171010700,
      "지점코드": 11710008,
      "시도시군구명": "서울특별시 송파구8",
      "name": "서울특별시 송파구 가락동(가락시장입구 부근)",
      "count": 5,
      "사상자수": 5,
      "사망자수": 0,
      "중상자수": 2,
      "경상자수": 3,
      "부상신고자수": 0,
      "lon": 127.1092868,
      "lat": 37.49525248
    },
    {
      "id": 163225,
      "사고다발지ID": 2013099,
      "법정동코드": 1171011100,
      "지점코드": 11710009,
      "시도시군구명": "서울특별시 송파구9",
      "name": "서울특별시 송파구 방이동(오금초교 부근)",
      "count": 5,
      "사상자수": 5,
      "사망자수": 0,
      "중상자수": 3,
      "경상자수": 1,
      "부상신고자수": 1,
      "lon": 127.1323472,
      "lat": 37.51001653
    },
    {
      "id": 156815,
      "사고다발지ID": 2013099,
      "법정동코드": 1171011100,
      "지점코드": 11710010,
      "시도시군구명": "서울특별시 송파구10",
      "name": "서울특별시 송파구 방이동(올림픽공원_남부순환로_진출_1 부근)",
      "count": 5,
      "사상자수": 5,
      "사망자수": 0,
      "중상자수": 3,
      "경상자수": 2,
      "부상신고자수": 0,
      "lon": 127.12765,
      "lat": 37.51103942
    },
    {
      "id": 157132,
      "사고다발지ID": 2013099,
      "법정동코드": 1171010400,
      "지점코드": 11710011,
      "시도시군구명": "서울특별시 송파구11",
      "name": "서울특별시 송파구 송파동(신도빌딩 부근)",
      "count": 5,
      "사상자수": 5,
      "사망자수": 0,
      "중상자수": 3,
      "경상자수": 2,
      "부상신고자수": 0,
      "lon": 127.1102725,
      "lat": 37.50752702
    },
    {
      "id": 157129,
      "사고다발지ID": 2013099,
      "법정동코드": 1171010600,
      "지점코드": 11710012,
      "시도시군구명": "서울특별시 송파구12",
      "name": "서울특별시 송파구 삼전동(배명로터리 부근)",
      "count": 5,
      "사상자수": 6,
      "사망자수": 0,
      "중상자수": 3,
      "경상자수": 3,
      "부상신고자수": 0,
      "lon": 127.0973754,
      "lat": 37.50113751
    },
    {
      "id": 157122,
      "사고다발지ID": 2013099,
      "법정동코드": 1171010200,
      "지점코드": 11710013,
      "시도시군구명": "서울특별시 송파구13",
      "name": "서울특별시 송파구 신천동(잠사중앙길-올림픽로_진입 부근)",
      "count": 5,
      "사상자수": 5,
      "사망자수": 0,
      "중상자수": 4,
      "경상자수": 1,
      "부상신고자수": 0,
      "lon": 127.1083819,
      "lat": 37.51600301
    },
    {
      "id": 157123,
      "사고다발지ID": 2013099,
      "법정동코드": 1171010500,
      "지점코드": 11710014,
      "시도시군구명": "서울특별시 송파구14",
      "name": "서울특별시 송파구 석촌동(송파사거리 부근)",
      "count": 6,
      "사상자수": 6,
      "사망자수": 0,
      "중상자수": 1,
      "경상자수": 4,
      "부상신고자수": 1,
      "lon": 127.1103152,
      "lat": 37.50135036
    },
    {
      "id": 157133,
      "사고다발지ID": 2013099,
      "법정동코드": 1171010500,
      "지점코드": 11710015,
      "시도시군구명": "서울특별시 송파구15",
      "name": "서울특별시 송파구 석촌동(석촌호수남(석촌사거리) 부근)",
      "count": 6,
      "사상자수": 6,
      "사망자수": 0,
      "중상자수": 1,
      "경상자수": 5,
      "부상신고자수": 0,
      "lon": 127.1028416,
      "lat": 37.50810813
    },
    {
      "id": 156811,
      "사고다발지ID": 2013099,
      "법정동코드": 1171010300,
      "지점코드": 11710016,
      "시도시군구명": "서울특별시 송파구16",
      "name": "서울특별시 송파구 풍납동(이화연립 부근)",
      "count": 6,
      "사상자수": 7,
      "사망자수": 0,
      "중상자수": 1,
      "경상자수": 5,
      "부상신고자수": 1,
      "lon": 127.1185628,
      "lat": 37.53569613
    },
    {
      "id": 156805,
      "사고다발지ID": 2013099,
      "법정동코드": 1171010700,
      "지점코드": 11710017,
      "시도시군구명": "서울특별시 송파구17",
      "name": "서울특별시 송파구 가락동(가락본동한화오벨리스크앞 부근)",
      "count": 6,
      "사상자수": 6,
      "사망자수": 0,
      "중상자수": 2,
      "경상자수": 1,
      "부상신고자수": 3,
      "lon": 127.1221841,
      "lat": 37.49421956
    },
    {
      "id": 157131,
      "사고다발지ID": 2013099,
      "법정동코드": 1171011300,
      "지점코드": 11710018,
      "시도시군구명": "서울특별시 송파구18",
      "name": "서울특별시 송파구 거여동(거여사거리_오금로_진입 부근)",
      "count": 6,
      "사상자수": 6,
      "사망자수": 0,
      "중상자수": 2,
      "경상자수": 3,
      "부상신고자수": 1,
      "lon": 127.1433229,
      "lat": 37.4934262
    },
    {
      "id": 163226,
      "사고다발지ID": 2013099,
      "법정동코드": 1171010100,
      "지점코드": 11710019,
      "시도시군구명": "서울특별시 송파구19",
      "name": "서울특별시 송파구 잠실동(신천역_올림픽로_진입_2 부근)",
      "count": 6,
      "사상자수": 6,
      "사망자수": 0,
      "중상자수": 3,
      "경상자수": 3,
      "부상신고자수": 0,
      "lon": 127.0845162,
      "lat": 37.51127864
    },
    {
      "id": 157127,
      "사고다발지ID": 2013099,
      "법정동코드": 1171011100,
      "지점코드": 11710020,
      "시도시군구명": "서울특별시 송파구20",
      "name": "서울특별시 송파구 방이동(화성빌딩 부근)",
      "count": 6,
      "사상자수": 6,
      "사망자수": 0,
      "중상자수": 3,
      "경상자수": 3,
      "부상신고자수": 0,
      "lon": 127.1191991,
      "lat": 37.50602149
    },
    {
      "id": 161943,
      "사고다발지ID": 2013099,
      "법정동코드": 1171010100,
      "지점코드": 11710021,
      "시도시군구명": "서울특별시 송파구21",
      "name": "서울특별시 송파구 잠실동(잠실3동파출소앞_삼전로_진입_1 부근)",
      "count": 7,
      "사상자수": 7,
      "사망자수": 0,
      "중상자수": 2,
      "경상자수": 3,
      "부상신고자수": 2,
      "lon": 127.0919896,
      "lat": 37.50884301
    },
    {
      "id": 157134,
      "사고다발지ID": 2013099,
      "법정동코드": 1171011100,
      "지점코드": 11710022,
      "시도시군구명": "서울특별시 송파구22",
      "name": "서울특별시 송파구 방이동(올림픽공원남4문 부근)",
      "count": 8,
      "사상자수": 8,
      "사망자수": 1,
      "중상자수": 3,
      "경상자수": 4,
      "부상신고자수": 0,
      "lon": 127.1172134,
      "lat": 37.51596578
    },
    {
      "id": 157135,
      "사고다발지ID": 2013099,
      "법정동코드": 1171011100,
      "지점코드": 11710023,
      "시도시군구명": "서울특별시 송파구23",
      "name": "서울특별시 송파구 방이동(둔촌사거리_둔촌로_진입 부근)",
      "count": 9,
      "사상자수": 9,
      "사망자수": 0,
      "중상자수": 4,
      "경상자수": 4,
      "부상신고자수": 1,
      "lon": 127.1343677,
      "lat": 37.52258097
    },
    {
      "id": 157136,
      "사고다발지ID": 2013099,
      "법정동코드": 1171010700,
      "지점코드": 11710024,
      "시도시군구명": "서울특별시 송파구24",
      "name": "서울특별시 송파구 가락동(가락시장 부근)",
      "count": 9,
      "사상자수": 9,
      "사망자수": 0,
      "중상자수": 5,
      "경상자수": 4,
      "부상신고자수": 0,
      "lon": 127.1143671,
      "lat": 37.49741824
    },
    {
      "id": 157441,
      "사고다발지ID": 2013099,
      "법정동코드": 1171010600,
      "지점코드": 11710025,
      "시도시군구명": "서울특별시 송파구25",
      "name": "서울특별시 송파구 삼전동(삼전사거리 부근)",
      "count": 10,
      "사상자수": 10,
      "사망자수": 0,
      "중상자수": 5,
      "경상자수": 5,
      "부상신고자수": 0,
      "lon": 127.0883986,
      "lat": 37.50486667
    },
    {
      "id": 163227,
      "사고다발지ID": 2013099,
      "법정동코드": 1174010800,
      "지점코드": 11740001,
      "시도시군구명": "서울특별시 강동구1",
      "name": "서울특별시 강동구 성내동(청구아파트 부근)",
      "count": 4,
      "사상자수": 4,
      "사망자수": 0,
      "중상자수": 1,
      "경상자수": 2,
      "부상신고자수": 1,
      "lon": 127.1341937,
      "lat": 37.52955777
    },
    {
      "id": 161950,
      "사고다발지ID": 2013099,
      "법정동코드": 1174010900,
      "지점코드": 11740002,
      "시도시군구명": "서울특별시 강동구2",
      "name": "서울특별시 강동구 천호동(강동구민회관 부근)",
      "count": 4,
      "사상자수": 4,
      "사망자수": 0,
      "중상자수": 1,
      "경상자수": 3,
      "부상신고자수": 0,
      "lon": 127.1413372,
      "lat": 37.54658129
    },
    {
      "id": 157443,
      "사고다발지ID": 2013099,
      "법정동코드": 1174010700,
      "지점코드": 11740003,
      "시도시군구명": "서울특별시 강동구3",
      "name": "서울특별시 강동구 암사동(올림픽대로-고덕동길램프(1) 부근)",
      "count": 4,
      "사상자수": 4,
      "사망자수": 0,
      "중상자수": 2,
      "경상자수": 1,
      "부상신고자수": 1,
      "lon": 127.1253158,
      "lat": 37.557508
    },
    {
      "id": 139740,
      "사고다발지ID": 2013099,
      "법정동코드": 1174010900,
      "지점코드": 11740004,
      "시도시군구명": "서울특별시 강동구4",
      "name": "서울특별시 강동구 천호동(광진교앞 부근)",
      "count": 4,
      "사상자수": 4,
      "사망자수": 0,
      "중상자수": 2,
      "경상자수": 2,
      "부상신고자수": 0,
      "lon": 127.125372,
      "lat": 37.54086828
    },
    {
      "id": 161949,
      "사고다발지ID": 2013099,
      "법정동코드": 1174010500,
      "지점코드": 11740005,
      "시도시군구명": "서울특별시 강동구5",
      "name": "서울특별시 강동구 길동(삼성APT 부근)",
      "count": 4,
      "사상자수": 4,
      "사망자수": 0,
      "중상자수": 2,
      "경상자수": 2,
      "부상신고자수": 0,
      "lon": 127.1360499,
      "lat": 37.53895248
    },
    {
      "id": 157448,
      "사고다발지ID": 2013099,
      "법정동코드": 1174010800,
      "지점코드": 11740006,
      "시도시군구명": "서울특별시 강동구6",
      "name": "서울특별시 강동구 성내동(산경빌딩 부근)",
      "count": 4,
      "사상자수": 4,
      "사망자수": 1,
      "중상자수": 2,
      "경상자수": 1,
      "부상신고자수": 0,
      "lon": 127.1291977,
      "lat": 37.53689185
    },
    {
      "id": 163228,
      "사고다발지ID": 2013099,
      "법정동코드": 1174010800,
      "지점코드": 11740007,
      "시도시군구명": "서울특별시 강동구7",
      "name": "서울특별시 강동구 성내동(올림픽공원북2문 부근)",
      "count": 5,
      "사상자수": 5,
      "사망자수": 0,
      "중상자수": 2,
      "경상자수": 3,
      "부상신고자수": 0,
      "lon": 127.1282632,
      "lat": 37.52389052
    },
    {
      "id": 157444,
      "사고다발지ID": 2013099,
      "법정동코드": 1174010100,
      "지점코드": 11740008,
      "시도시군구명": "서울특별시 강동구8",
      "name": "서울특별시 강동구 명일동(E마트 부근)",
      "count": 5,
      "사상자수": 5,
      "사망자수": 0,
      "중상자수": 2,
      "경상자수": 3,
      "부상신고자수": 0,
      "lon": 127.1574986,
      "lat": 37.55559587
    },
    {
      "id": 161951,
      "사고다발지ID": 2013099,
      "법정동코드": 1174010900,
      "지점코드": 11740009,
      "시도시군구명": "서울특별시 강동구9",
      "name": "서울특별시 강동구 천호동(천호초교입구 부근)",
      "count": 6,
      "사상자수": 6,
      "사망자수": 0,
      "중상자수": 1,
      "경상자수": 5,
      "부상신고자수": 0,
      "lon": 127.1340263,
      "lat": 37.54724441
    },
    {
      "id": 157454,
      "사고다발지ID": 2013099,
      "법정동코드": 1174010500,
      "지점코드": 11740010,
      "시도시군구명": "서울특별시 강동구10",
      "name": "서울특별시 강동구 길동(강동성심병원 부근)",
      "count": 7,
      "사상자수": 7,
      "사망자수": 0,
      "중상자수": 2,
      "경상자수": 5,
      "부상신고자수": 0,
      "lon": 127.1338798,
      "lat": 37.53511704
    },
    {
      "id": 161952,
      "사고다발지ID": 2013099,
      "법정동코드": 1174010800,
      "지점코드": 11740011,
      "시도시군구명": "서울특별시 강동구11",
      "name": "서울특별시 강동구 성내동(길동사거리_둔촌로_진출_1 부근)",
      "count": 11,
      "사상자수": 11,
      "사망자수": 0,
      "중상자수": 6,
      "경상자수": 4,
      "부상신고자수": 1,
      "lon": 127.1387785,
      "lat": 37.53351254
    },
    {
      "id": 139503,
      "사고다발지ID": 2013099,
      "법정동코드": 2623010100,
      "지점코드": 26230001,
      "시도시군구명": "부산광역시 부산진구1",
      "name": "부산광역시 부산진구 양정동(부산광역시양정청소년수련관 부근)",
      "count": 4,
      "사상자수": 4,
      "사망자수": 0,
      "중상자수": 1,
      "경상자수": 3,
      "부상신고자수": 0,
      "lon": 129.0715372,
      "lat": 35.17755222
    },
    {
      "id": 163229,
      "사고다발지ID": 2013099,
      "법정동코드": 2626010900,
      "지점코드": 26260001,
      "시도시군구명": "부산광역시 동래구1",
      "name": "부산광역시 동래구 사직동(경동제약부산분실 부근)",
      "count": 4,
      "사상자수": 4,
      "사망자수": 0,
      "중상자수": 2,
      "경상자수": 2,
      "부상신고자수": 0,
      "lon": 129.0649576,
      "lat": 35.19493873
    },
    {
      "id": 162241,
      "사고다발지ID": 2013099,
      "법정동코드": 2626010800,
      "지점코드": 26260002,
      "시도시군구명": "부산광역시 동래구2",
      "name": "부산광역시 동래구 온천동(광혜병원 부근)",
      "count": 4,
      "사상자수": 5,
      "사망자수": 0,
      "중상자수": 3,
      "경상자수": 2,
      "부상신고자수": 0,
      "lon": 129.0705289,
      "lat": 35.20703292
    },
    {
      "id": 162243,
      "사고다발지ID": 2013099,
      "법정동코드": 2626010300,
      "지점코드": 26260003,
      "시도시군구명": "부산광역시 동래구3",
      "name": "부산광역시 동래구 칠산동(제일투자신탁 부근)",
      "count": 5,
      "사상자수": 5,
      "사망자수": 0,
      "중상자수": 2,
      "경상자수": 2,
      "부상신고자수": 1,
      "lon": 129.0860786,
      "lat": 35.2009979
    },
    {
      "id": 157761,
      "사고다발지ID": 2013099,
      "법정동코드": 2626010900,
      "지점코드": 26260004,
      "시도시군구명": "부산광역시 동래구4",
      "name": "부산광역시 동래구 사직동(대선사거리 부근)",
      "count": 5,
      "사상자수": 5,
      "사망자수": 0,
      "중상자수": 2,
      "경상자수": 3,
      "부상신고자수": 0,
      "lon": 129.0721974,
      "lat": 35.19697173
    },
    {
      "id": 162244,
      "사고다발지ID": 2013099,
      "법정동코드": 2626010900,
      "지점코드": 26260005,
      "시도시군구명": "부산광역시 동래구5",
      "name": "부산광역시 동래구 사직동(내성교차로 부근)",
      "count": 7,
      "사상자수": 7,
      "사망자수": 0,
      "중상자수": 1,
      "경상자수": 5,
      "부상신고자수": 1,
      "lon": 129.0780055,
      "lat": 35.20369497
    },
    {
      "id": 162245,
      "사고다발지ID": 2013099,
      "법정동코드": 2629010600,
      "지점코드": 26290001,
      "시도시군구명": "부산광역시 남구1",
      "name": "부산광역시 남구 대연동(용소 삼거리 부근)",
      "count": 5,
      "사상자수": 5,
      "사망자수": 0,
      "중상자수": 0,
      "경상자수": 5,
      "부상신고자수": 0,
      "lon": 129.1001268,
      "lat": 35.13697137
    },
    {
      "id": 162246,
      "사고다발지ID": 2013099,
      "법정동코드": 2629010700,
      "지점코드": 26290002,
      "시도시군구명": "부산광역시 남구2",
      "name": "부산광역시 남구 용호동(용호여중B 부근)",
      "count": 6,
      "사상자수": 6,
      "사망자수": 0,
      "중상자수": 3,
      "경상자수": 3,
      "부상신고자수": 0,
      "lon": 129.109562,
      "lat": 35.12646307
    },
    {
      "id": 157766,
      "사고다발지ID": 2013099,
      "법정동코드": 2638010300,
      "지점코드": 26380001,
      "시도시군구명": "부산광역시 사하구1",
      "name": "부산광역시 사하구 하단동(근린생활시설 부근)",
      "count": 5,
      "사상자수": 5,
      "사망자수": 2,
      "중상자수": 3,
      "경상자수": 0,
      "부상신고자수": 0,
      "lon": 128.9656881,
      "lat": 35.10552652
    },
    {
      "id": 162247,
      "사고다발지ID": 2013099,
      "법정동코드": 2641011000,
      "지점코드": 26410001,
      "시도시군구명": "부산광역시 금정구1",
      "name": "부산광역시 금정구 서동(동천교(서측) 부근)",
      "count": 5,
      "사상자수": 5,
      "사망자수": 0,
      "중상자수": 3,
      "경상자수": 2,
      "부상신고자수": 0,
      "lon": 129.1173927,
      "lat": 35.21658685
    },
    {
      "id": 157770,
      "사고다발지ID": 2013099,
      "법정동코드": 2647010200,
      "지점코드": 26470001,
      "시도시군구명": "부산광역시 연제구1",
      "name": "부산광역시 연제구 연산동(연제예식장A 부근)",
      "count": 4,
      "사상자수": 4,
      "사망자수": 0,
      "중상자수": 2,
      "경상자수": 2,
      "부상신고자수": 0,
      "lon": 129.1070616,
      "lat": 35.18368914
    },
    {
      "id": 157768,
      "사고다발지ID": 2013099,
      "법정동코드": 2647010100,
      "지점코드": 26470002,
      "시도시군구명": "부산광역시 연제구2",
      "name": "부산광역시 연제구 거제동(남문구사거리 부근)",
      "count": 6,
      "사상자수": 6,
      "사망자수": 0,
      "중상자수": 2,
      "경상자수": 4,
      "부상신고자수": 0,
      "lon": 129.0741276,
      "lat": 35.18832277
    },
    {
      "id": 157771,
      "사고다발지ID": 2013099,
      "법정동코드": 2650010300,
      "지점코드": 26500001,
      "시도시군구명": "부산광역시 수영구1",
      "name": "부산광역시 수영구 민락동(수변공원주차장 부근)",
      "count": 4,
      "사상자수": 4,
      "사망자수": 0,
      "중상자수": 1,
      "경상자수": 3,
      "부상신고자수": 0,
      "lon": 129.1299899,
      "lat": 35.15500361
    },
    {
      "id": 157772,
      "사고다발지ID": 2013099,
      "법정동코드": 2650010400,
      "지점코드": 26500002,
      "시도시군구명": "부산광역시 수영구2",
      "name": "부산광역시 수영구 광안동(오페라 부근)",
      "count": 4,
      "사상자수": 4,
      "사망자수": 0,
      "중상자수": 2,
      "경상자수": 2,
      "부상신고자수": 0,
      "lon": 129.1190339,
      "lat": 35.15445248
    },
    {
      "id": 139872,
      "사고다발지ID": 2013099,
      "법정동코드": 2650010500,
      "지점코드": 26500003,
      "시도시군구명": "부산광역시 수영구3",
      "name": "부산광역시 수영구 남천동(수영구청앞 부근)",
      "count": 6,
      "사상자수": 6,
      "사망자수": 0,
      "중상자수": 3,
      "경상자수": 3,
      "부상신고자수": 0,
      "lon": 129.1110075,
      "lat": 35.13601979
    },
    {
      "id": 157773,
      "사고다발지ID": 2013099,
      "법정동코드": 2650010300,
      "지점코드": 26500004,
      "시도시군구명": "부산광역시 수영구4",
      "name": "부산광역시 수영구 민락동(동일횟집 부근)",
      "count": 7,
      "사상자수": 7,
      "사망자수": 0,
      "중상자수": 5,
      "경상자수": 1,
      "부상신고자수": 1,
      "lon": 129.1239068,
      "lat": 35.15593484
    },
    {
      "id": 157774,
      "사고다발지ID": 2013099,
      "법정동코드": 2653010100,
      "지점코드": 26530001,
      "시도시군구명": "부산광역시 사상구1",
      "name": "부산광역시 사상구 삼락동((주)금강화학 부근)",
      "count": 5,
      "사상자수": 5,
      "사망자수": 0,
      "중상자수": 2,
      "경상자수": 1,
      "부상신고자수": 2,
      "lon": 128.9809548,
      "lat": 35.19135779
    },
    {
      "id": 158082,
      "사고다발지ID": 2013099,
      "법정동코드": 2711015700,
      "지점코드": 27110001,
      "시도시군구명": "대구광역시 중구1",
      "name": "대구광역시 중구 대봉동((주)왼손잽이 부근)",
      "count": 6,
      "사상자수": 6,
      "사망자수": 0,
      "중상자수": 2,
      "경상자수": 3,
      "부상신고자수": 1,
      "lon": 128.6036586,
      "lat": 35.85567813
    },
    {
      "id": 157775,
      "사고다발지ID": 2013099,
      "법정동코드": 2711010700,
      "지점코드": 27110002,
      "시도시군구명": "대구광역시 중구2",
      "name": "대구광역시 중구 삼덕동3가(영림합판 부근)",
      "count": 6,
      "사상자수": 6,
      "사망자수": 0,
      "중상자수": 5,
      "경상자수": 1,
      "부상신고자수": 0,
      "lon": 128.6044106,
      "lat": 35.86198201
    },
    {
      "id": 157776,
      "사고다발지ID": 2013099,
      "법정동코드": 2711010500,
      "지점코드": 27110003,
      "시도시군구명": "대구광역시 중구3",
      "name": "대구광역시 중구 삼덕동1가(시청네거리 부근)",
      "count": 8,
      "사상자수": 8,
      "사망자수": 0,
      "중상자수": 2,
      "경상자수": 4,
      "부상신고자수": 2,
      "lon": 128.599162,
      "lat": 35.87112909
    },
    {
      "id": 158083,
      "사고다발지ID": 2013099,
      "법정동코드": 2711010800,
      "지점코드": 27110004,
      "시도시군구명": "대구광역시 중구4",
      "name": "대구광역시 중구 봉산동(동아진열장 부근)",
      "count": 9,
      "사상자수": 10,
      "사망자수": 0,
      "중상자수": 2,
      "경상자수": 8,
      "부상신고자수": 0,
      "lon": 128.5926177,
      "lat": 35.86597093
    },
    {
      "id": 139757,
      "사고다발지ID": 2013099,
      "법정동코드": 2711015600,
      "지점코드": 27110005,
      "시도시군구명": "대구광역시 중구5",
      "name": "대구광역시 중구 남산동(계산오거리 부근)",
      "count": 9,
      "사상자수": 9,
      "사망자수": 0,
      "중상자수": 3,
      "경상자수": 6,
      "부상신고자수": 0,
      "lon": 128.5865784,
      "lat": 35.86599039
    },
    {
      "id": 162249,
      "사고다발지ID": 2013099,
      "법정동코드": 2711010100,
      "지점코드": 27110006,
      "시도시군구명": "대구광역시 중구6",
      "name": "대구광역시 중구 동인동1가(울릉식당 부근)",
      "count": 10,
      "사상자수": 10,
      "사망자수": 0,
      "중상자수": 6,
      "경상자수": 3,
      "부상신고자수": 1,
      "lon": 128.6061847,
      "lat": 35.87272642
    },
    {
      "id": 158085,
      "사고다발지ID": 2013099,
      "법정동코드": 2714011900,
      "지점코드": 27140001,
      "시도시군구명": "대구광역시 동구1",
      "name": "대구광역시 동구 용계동(용호삼거리1 부근)",
      "count": 4,
      "사상자수": 4,
      "사망자수": 0,
      "중상자수": 0,
      "경상자수": 4,
      "부상신고자수": 0,
      "lon": 128.6756819,
      "lat": 35.87810888
    },
    {
      "id": 158084,
      "사고다발지ID": 2013099,
      "법정동코드": 2714010100,
      "지점코드": 27140002,
      "시도시군구명": "대구광역시 동구2",
      "name": "대구광역시 동구 신암동(꽃백화점 부근)",
      "count": 4,
      "사상자수": 4,
      "사망자수": 0,
      "중상자수": 0,
      "경상자수": 4,
      "부상신고자수": 0,
      "lon": 128.6367655,
      "lat": 35.88621661
    },
    {
      "id": 139830,
      "사고다발지ID": 2013099,
      "법정동코드": 2714011000,
      "지점코드": 27140003,
      "시도시군구명": "대구광역시 동구3",
      "name": "대구광역시 동구 검사동(패밀리마트 부근)",
      "count": 4,
      "사상자수": 4,
      "사망자수": 0,
      "중상자수": 2,
      "경상자수": 2,
      "부상신고자수": 0,
      "lon": 128.6463521,
      "lat": 35.89035385
    },
    {
      "id": 139820,
      "사고다발지ID": 2013099,
      "법정동코드": 2714010900,
      "지점코드": 27140004,
      "시도시군구명": "대구광역시 동구4",
      "name": "대구광역시 동구 입석동(입석사거리 부근)",
      "count": 4,
      "사상자수": 4,
      "사망자수": 0,
      "중상자수": 4,
      "경상자수": 0,
      "부상신고자수": 0,
      "lon": 128.6433521,
      "lat": 35.89206836
    },
    {
      "id": 162250,
      "사고다발지ID": 2013099,
      "법정동코드": 2714010300,
      "지점코드": 27140005,
      "시도시군구명": "대구광역시 동구5",
      "name": "대구광역시 동구 효목동(디딤돌학원 부근)",
      "count": 5,
      "사상자수": 6,
      "사망자수": 0,
      "중상자수": 1,
      "경상자수": 5,
      "부상신고자수": 0,
      "lon": 128.6397845,
      "lat": 35.8773825
    },
    {
      "id": 158086,
      "사고다발지ID": 2013099,
      "법정동코드": 2714010900,
      "지점코드": 27140006,
      "시도시군구명": "대구광역시 동구6",
      "name": "대구광역시 동구 입석동(유통종합자동차상사 부근)",
      "count": 5,
      "사상자수": 5,
      "사망자수": 0,
      "중상자수": 2,
      "경상자수": 3,
      "부상신고자수": 0,
      "lon": 128.640877,
      "lat": 35.89554515
    },
    {
      "id": 162251,
      "사고다발지ID": 2013099,
      "법정동코드": 2714011700,
      "지점코드": 27140007,
      "시도시군구명": "대구광역시 동구7",
      "name": "대구광역시 동구 신기동(안심주공네거리 부근)",
      "count": 6,
      "사상자수": 6,
      "사망자수": 0,
      "중상자수": 2,
      "경상자수": 4,
      "부상신고자수": 0,
      "lon": 128.7015087,
      "lat": 35.8668927
    },
    {
      "id": 162252,
      "사고다발지ID": 2013099,
      "법정동코드": 2714010100,
      "지점코드": 27140008,
      "시도시군구명": "대구광역시 동구8",
      "name": "대구광역시 동구 신암동(공고네거리 부근)",
      "count": 8,
      "사상자수": 8,
      "사망자수": 0,
      "중상자수": 1,
      "경상자수": 6,
      "부상신고자수": 1,
      "lon": 128.6145079,
      "lat": 35.8813028
    },
    {
      "id": 158401,
      "사고다발지ID": 2013099,
      "법정동코드": 2717010200,
      "지점코드": 27170001,
      "시도시군구명": "대구광역시 서구1",
      "name": "대구광역시 서구 비산동(비산네거리 부근)",
      "count": 4,
      "사상자수": 4,
      "사망자수": 0,
      "중상자수": 2,
      "경상자수": 2,
      "부상신고자수": 0,
      "lon": 128.5729951,
      "lat": 35.8727788
    },
    {
      "id": 162253,
      "사고다발지ID": 2013099,
      "법정동코드": 2717010900,
      "지점코드": 27170002,
      "시도시군구명": "대구광역시 서구2",
      "name": "대구광역시 서구 원대동3가(원대네거리 부근)",
      "count": 4,
      "사상자수": 4,
      "사망자수": 0,
      "중상자수": 3,
      "경상자수": 1,
      "부상신고자수": 0,
      "lon": 128.5737249,
      "lat": 35.88469079
    },
    {
      "id": 162254,
      "사고다발지ID": 2013099,
      "법정동코드": 2717010300,
      "지점코드": 27170003,
      "시도시군구명": "대구광역시 서구3",
      "name": "대구광역시 서구 평리동(서구청1 부근)",
      "count": 5,
      "사상자수": 5,
      "사망자수": 0,
      "중상자수": 1,
      "경상자수": 4,
      "부상신고자수": 0,
      "lon": 128.5586624,
      "lat": 35.87117445
    },
    {
      "id": 158096,
      "사고다발지ID": 2013099,
      "법정동코드": 2717010300,
      "지점코드": 27170004,
      "시도시군구명": "대구광역시 서구4",
      "name": "대구광역시 서구 평리동(평리광명네거리 부근)",
      "count": 5,
      "사상자수": 5,
      "사망자수": 0,
      "중상자수": 2,
      "경상자수": 3,
      "부상신고자수": 0,
      "lon": 128.5550814,
      "lat": 35.87393582
    },
    {
      "id": 158402,
      "사고다발지ID": 2013099,
      "법정동코드": 2717010300,
      "지점코드": 27170005,
      "시도시군구명": "대구광역시 서구5",
      "name": "대구광역시 서구 평리동(오복세탁 부근)",
      "count": 5,
      "사상자수": 6,
      "사망자수": 0,
      "중상자수": 2,
      "경상자수": 4,
      "부상신고자수": 0,
      "lon": 128.5586473,
      "lat": 35.87479624
    },
    {
      "id": 162255,
      "사고다발지ID": 2013099,
      "법정동코드": 2717010300,
      "지점코드": 27170006,
      "시도시군구명": "대구광역시 서구6",
      "name": "대구광역시 서구 평리동(유풍반점 부근)",
      "count": 5,
      "사상자수": 6,
      "사망자수": 0,
      "중상자수": 4,
      "경상자수": 2,
      "부상신고자수": 0,
      "lon": 128.5661617,
      "lat": 35.87232028
    },
    {
      "id": 158090,
      "사고다발지ID": 2013099,
      "법정동코드": 2717010300,
      "지점코드": 27170007,
      "시도시군구명": "대구광역시 서구7",
      "name": "대구광역시 서구 평리동(평리네거리 부근)",
      "count": 6,
      "사상자수": 7,
      "사망자수": 0,
      "중상자수": 0,
      "경상자수": 7,
      "부상신고자수": 0,
      "lon": 128.5547964,
      "lat": 35.87777192
    },
    {
      "id": 158415,
      "사고다발지ID": 2013099,
      "법정동코드": 2717010700,
      "지점코드": 27170008,
      "시도시군구명": "대구광역시 서구8",
      "name": "대구광역시 서구 원대동1가(달성학교네거리 부근)",
      "count": 6,
      "사상자수": 6,
      "사망자수": 0,
      "중상자수": 3,
      "경상자수": 2,
      "부상신고자수": 1,
      "lon": 128.5793528,
      "lat": 35.88135513
    },
    {
      "id": 158404,
      "사고다발지ID": 2013099,
      "법정동코드": 2717010200,
      "지점코드": 27170009,
      "시도시군구명": "대구광역시 서구9",
      "name": "대구광역시 서구 비산동(평리교 부근)",
      "count": 7,
      "사상자수": 7,
      "사망자수": 0,
      "중상자수": 3,
      "경상자수": 3,
      "부상신고자수": 1,
      "lon": 128.5562419,
      "lat": 35.88356086
    },
    {
      "id": 158093,
      "사고다발지ID": 2013099,
      "법정동코드": 2717010300,
      "지점코드": 27170010,
      "시도시군구명": "대구광역시 서구10",
      "name": "대구광역시 서구 평리동(신평리네거리 부근)",
      "count": 9,
      "사상자수": 9,
      "사망자수": 0,
      "중상자수": 5,
      "경상자수": 4,
      "부상신고자수": 0,
      "lon": 128.5553206,
      "lat": 35.86938156
    },
    {
      "id": 159685,
      "사고다발지ID": 2013099,
      "법정동코드": 2717010100,
      "지점코드": 27170011,
      "시도시군구명": "대구광역시 서구11",
      "name": "대구광역시 서구 내당동(고래고기식당 부근)",
      "count": 11,
      "사상자수": 12,
      "사망자수": 1,
      "중상자수": 5,
      "경상자수": 6,
      "부상신고자수": 0,
      "lon": 128.5730344,
      "lat": 35.86257432
    },
    {
      "id": 158406,
      "사고다발지ID": 2013099,
      "법정동코드": 2717010200,
      "지점코드": 27170012,
      "시도시군구명": "대구광역시 서구12",
      "name": "대구광역시 서구 비산동(북비산네거리 부근)",
      "count": 16,
      "사상자수": 16,
      "사망자수": 0,
      "중상자수": 7,
      "경상자수": 9,
      "부상신고자수": 0,
      "lon": 128.571751,
      "lat": 35.88058656
    },
    {
      "id": 158408,
      "사고다발지ID": 2013099,
      "법정동코드": 2720010200,
      "지점코드": 27200001,
      "시도시군구명": "대구광역시 남구1",
      "name": "대구광역시 남구 봉덕동(영대네거리 부근)",
      "count": 4,
      "사상자수": 10,
      "사망자수": 0,
      "중상자수": 4,
      "경상자수": 6,
      "부상신고자수": 0,
      "lon": 128.5905526,
      "lat": 35.84491412
    },
    {
      "id": 158407,
      "사고다발지ID": 2013099,
      "법정동코드": 2720010300,
      "지점코드": 27200002,
      "시도시군구명": "대구광역시 남구2",
      "name": "대구광역시 남구 대명동(재건병원 부근)",
      "count": 5,
      "사상자수": 6,
      "사망자수": 0,
      "중상자수": 1,
      "경상자수": 4,
      "부상신고자수": 1,
      "lon": 128.5901125,
      "lat": 35.8537243
    },
    {
      "id": 158735,
      "사고다발지ID": 2013099,
      "법정동코드": 2723012400,
      "지점코드": 27230001,
      "시도시군구명": "대구광역시 북구1",
      "name": "대구광역시 북구 동천동(경북가축위생시험소 부근)",
      "count": 4,
      "사상자수": 4,
      "사망자수": 0,
      "중상자수": 1,
      "경상자수": 2,
      "부상신고자수": 1,
      "lon": 128.5589453,
      "lat": 35.94569774
    },
    {
      "id": 162256,
      "사고다발지ID": 2013099,
      "법정동코드": 2723010200,
      "지점코드": 27230002,
      "시도시군구명": "대구광역시 북구2",
      "name": "대구광역시 북구 칠성동2가(대구역북편네거리 부근)",
      "count": 4,
      "사상자수": 4,
      "사망자수": 0,
      "중상자수": 1,
      "경상자수": 3,
      "부상신고자수": 0,
      "lon": 128.5930764,
      "lat": 35.87787232
    },
    {
      "id": 158734,
      "사고다발지ID": 2013099,
      "법정동코드": 2723010600,
      "지점코드": 27230003,
      "시도시군구명": "대구광역시 북구3",
      "name": "대구광역시 북구 침산동(오봉오거리 부근)",
      "count": 4,
      "사상자수": 5,
      "사망자수": 0,
      "중상자수": 1,
      "경상자수": 3,
      "부상신고자수": 1,
      "lon": 128.5828856,
      "lat": 35.8890467
    },
    {
      "id": 158416,
      "사고다발지ID": 2013099,
      "법정동코드": 2723011200,
      "지점코드": 27230004,
      "시도시군구명": "대구광역시 북구4",
      "name": "대구광역시 북구 복현동(복현네거리 부근)",
      "count": 4,
      "사상자수": 4,
      "사망자수": 0,
      "중상자수": 2,
      "경상자수": 2,
      "부상신고자수": 0,
      "lon": 128.6231593,
      "lat": 35.89233532
    },
    {
      "id": 158722,
      "사고다발지ID": 2013099,
      "법정동코드": 2723012400,
      "지점코드": 27230005,
      "시도시군구명": "대구광역시 북구5",
      "name": "대구광역시 북구 동천동(전자랜드(주)칠곡점 부근)",
      "count": 4,
      "사상자수": 4,
      "사망자수": 0,
      "중상자수": 2,
      "경상자수": 2,
      "부상신고자수": 0,
      "lon": 128.5573116,
      "lat": 35.94261289
    },
    {
      "id": 158410,
      "사고다발지ID": 2013099,
      "법정동코드": 2723012600,
      "지점코드": 27230006,
      "시도시군구명": "대구광역시 북구6",
      "name": "대구광역시 북구 태전동(구암교 부근)",
      "count": 4,
      "사상자수": 4,
      "사망자수": 0,
      "중상자수": 3,
      "경상자수": 1,
      "부상신고자수": 0,
      "lon": 128.5490452,
      "lat": 35.92556284
    },
    {
      "id": 158412,
      "사고다발지ID": 2013099,
      "법정동코드": 2723011500,
      "지점코드": 27230007,
      "시도시군구명": "대구광역시 북구7",
      "name": "대구광역시 북구 서변동(서변지하차도 부근)",
      "count": 5,
      "사상자수": 6,
      "사망자수": 0,
      "중상자수": 0,
      "경상자수": 6,
      "부상신고자수": 0,
      "lon": 128.599296,
      "lat": 35.91395932
    },
    {
      "id": 158729,
      "사고다발지ID": 2013099,
      "법정동코드": 2723011100,
      "지점코드": 27230008,
      "시도시군구명": "대구광역시 북구8",
      "name": "대구광역시 북구 산격동(산업용재관 부근)",
      "count": 5,
      "사상자수": 5,
      "사망자수": 0,
      "중상자수": 1,
      "경상자수": 2,
      "부상신고자수": 2,
      "lon": 128.6054205,
      "lat": 35.90225469
    },
    {
      "id": 158726,
      "사고다발지ID": 2013099,
      "법정동코드": 2723010100,
      "지점코드": 27230009,
      "시도시군구명": "대구광역시 북구9",
      "name": "대구광역시 북구 칠성동1가(칠성치안센타 부근)",
      "count": 5,
      "사상자수": 5,
      "사망자수": 0,
      "중상자수": 1,
      "경상자수": 3,
      "부상신고자수": 1,
      "lon": 128.6008941,
      "lat": 35.87852045
    },
    {
      "id": 158733,
      "사고다발지ID": 2013099,
      "법정동코드": 2723011100,
      "지점코드": 27230010,
      "시도시군구명": "대구광역시 북구10",
      "name": "대구광역시 북구 산격동(복현고가차도 부근)",
      "count": 5,
      "사상자수": 5,
      "사망자수": 0,
      "중상자수": 1,
      "경상자수": 3,
      "부상신고자수": 1,
      "lon": 128.6151741,
      "lat": 35.90000527
    },
    {
      "id": 163230,
      "사고다발지ID": 2013099,
      "법정동코드": 2723011200,
      "지점코드": 27230011,
      "시도시군구명": "대구광역시 북구11",
      "name": "대구광역시 북구 복현동(복현치안센터 부근)",
      "count": 5,
      "사상자수": 5,
      "사망자수": 0,
      "중상자수": 1,
      "경상자수": 4,
      "부상신고자수": 0,
      "lon": 128.6190708,
      "lat": 35.8945817
    },
    {
      "id": 162248,
      "사고다발지ID": 2013099,
      "법정동코드": 2723010100,
      "지점코드": 27230012,
      "시도시군구명": "대구광역시 북구12",
      "name": "대구광역시 북구 칠성동1가(교동네거리 부근)",
      "count": 5,
      "사상자수": 5,
      "사망자수": 0,
      "중상자수": 2,
      "경상자수": 3,
      "부상신고자수": 0,
      "lon": 128.6012532,
      "lat": 35.87468327
    },
    {
      "id": 159043,
      "사고다발지ID": 2013099,
      "법정동코드": 2723011200,
      "지점코드": 27230013,
      "시도시군구명": "대구광역시 북구13",
      "name": "대구광역시 북구 복현동(태왕아너스복현 부근)",
      "count": 5,
      "사상자수": 5,
      "사망자수": 0,
      "중상자수": 3,
      "경상자수": 1,
      "부상신고자수": 1,
      "lon": 128.6215309,
      "lat": 35.89960333
    },
    {
      "id": 158724,
      "사고다발지ID": 2013099,
      "법정동코드": 2723010700,
      "지점코드": 27230014,
      "시도시군구명": "대구광역시 북구14",
      "name": "대구광역시 북구 노원동1가(오성금속사 부근)",
      "count": 5,
      "사상자수": 6,
      "사망자수": 0,
      "중상자수": 5,
      "경상자수": 1,
      "부상신고자수": 0,
      "lon": 128.5777824,
      "lat": 35.89367065
    },
    {
      "id": 158727,
      "사고다발지ID": 2013099,
      "법정동코드": 2723010700,
      "지점코드": 27230015,
      "시도시군구명": "대구광역시 북구15",
      "name": "대구광역시 북구 노원동1가(원대오거리 부근)",
      "count": 6,
      "사상자수": 6,
      "사망자수": 0,
      "중상자수": 0,
      "경상자수": 5,
      "부상신고자수": 1,
      "lon": 128.5764878,
      "lat": 35.8874213
    },
    {
      "id": 158414,
      "사고다발지ID": 2013099,
      "법정동코드": 2723011800,
      "지점코드": 27230016,
      "시도시군구명": "대구광역시 북구16",
      "name": "대구광역시 북구 읍내동(읍내삼거리 부근)",
      "count": 6,
      "사상자수": 6,
      "사망자수": 0,
      "중상자수": 1,
      "경상자수": 4,
      "부상신고자수": 1,
      "lon": 128.5525063,
      "lat": 35.94673639
    },
    {
      "id": 158411,
      "사고다발지ID": 2013099,
      "법정동코드": 2723011000,
      "지점코드": 27230017,
      "시도시군구명": "대구광역시 북구17",
      "name": "대구광역시 북구 대현동(북구선거관리위원회 부근)",
      "count": 6,
      "사상자수": 6,
      "사망자수": 0,
      "중상자수": 1,
      "경상자수": 5,
      "부상신고자수": 0,
      "lon": 128.6029025,
      "lat": 35.8871639
    },
    {
      "id": 163234,
      "사고다발지ID": 2013099,
      "법정동코드": 2723010100,
      "지점코드": 27230018,
      "시도시군구명": "대구광역시 북구18",
      "name": "대구광역시 북구 칠성동1가(칠성시장네거리 부근)",
      "count": 6,
      "사상자수": 6,
      "사망자수": 0,
      "중상자수": 2,
      "경상자수": 3,
      "부상신고자수": 1,
      "lon": 128.6046482,
      "lat": 35.87625973
    },
    {
      "id": 158736,
      "사고다발지ID": 2013099,
      "법정동코드": 2723010100,
      "지점코드": 27230019,
      "시도시군구명": "대구광역시 북구19",
      "name": "대구광역시 북구 칠성동1가(남침산네거리 부근)",
      "count": 6,
      "사상자수": 6,
      "사망자수": 0,
      "중상자수": 2,
      "경상자수": 3,
      "부상신고자수": 1,
      "lon": 128.588778,
      "lat": 35.88366543
    },
    {
      "id": 159049,
      "사고다발지ID": 2013099,
      "법정동코드": 2723012500,
      "지점코드": 27230020,
      "시도시군구명": "대구광역시 북구20",
      "name": "대구광역시 북구 관음동(칠곡네거리 부근)",
      "count": 6,
      "사상자수": 6,
      "사망자수": 0,
      "중상자수": 3,
      "경상자수": 2,
      "부상신고자수": 1,
      "lon": 128.5477525,
      "lat": 35.93295067
    },
    {
      "id": 158095,
      "사고다발지ID": 2013099,
      "법정동코드": 2723010900,
      "지점코드": 27230021,
      "시도시군구명": "대구광역시 북구21",
      "name": "대구광역시 북구 노원동3가(팔달네거리 부근)",
      "count": 6,
      "사상자수": 7,
      "사망자수": 0,
      "중상자수": 3,
      "경상자수": 2,
      "부상신고자수": 2,
      "lon": 128.567098,
      "lat": 35.88896676
    },
    {
      "id": 158721,
      "사고다발지ID": 2013099,
      "법정동코드": 2723011100,
      "지점코드": 27230022,
      "시도시군구명": "대구광역시 북구22",
      "name": "대구광역시 북구 산격동(연암네거리 부근)",
      "count": 6,
      "사상자수": 7,
      "사망자수": 0,
      "중상자수": 3,
      "경상자수": 3,
      "부상신고자수": 1,
      "lon": 128.5960629,
      "lat": 35.90012196
    },
    {
      "id": 159051,
      "사고다발지ID": 2013099,
      "법정동코드": 2723010600,
      "지점코드": 27230023,
      "시도시군구명": "대구광역시 북구23",
      "name": "대구광역시 북구 침산동(성북지하차도 부근)",
      "count": 7,
      "사상자수": 7,
      "사망자수": 0,
      "중상자수": 2,
      "경상자수": 5,
      "부상신고자수": 0,
      "lon": 128.5907804,
      "lat": 35.89302574
    },
    {
      "id": 162562,
      "사고다발지ID": 2013099,
      "법정동코드": 2723012300,
      "지점코드": 27230024,
      "시도시군구명": "대구광역시 북구24",
      "name": "대구광역시 북구 구암동(한마당숯불촌 부근)",
      "count": 7,
      "사상자수": 7,
      "사망자수": 1,
      "중상자수": 1,
      "경상자수": 4,
      "부상신고자수": 1,
      "lon": 128.5621195,
      "lat": 35.93214471
    },
    {
      "id": 159045,
      "사고다발지ID": 2013099,
      "법정동코드": 2723012600,
      "지점코드": 27230025,
      "시도시군구명": "대구광역시 북구25",
      "name": "대구광역시 북구 태전동(한국통신 부근)",
      "count": 8,
      "사상자수": 8,
      "사망자수": 0,
      "중상자수": 1,
      "경상자수": 7,
      "부상신고자수": 0,
      "lon": 128.548625,
      "lat": 35.91430837
    },
    {
      "id": 158731,
      "사고다발지ID": 2013099,
      "법정동코드": 2723010600,
      "지점코드": 27230026,
      "시도시군구명": "대구광역시 북구26",
      "name": "대구광역시 북구 침산동(동침산네거리 부근)",
      "count": 9,
      "사상자수": 9,
      "사망자수": 0,
      "중상자수": 1,
      "경상자수": 7,
      "부상신고자수": 1,
      "lon": 128.5987574,
      "lat": 35.88603347
    },
    {
      "id": 159361,
      "사고다발지ID": 2013099,
      "법정동코드": 2726011100,
      "지점코드": 27260001,
      "시도시군구명": "대구광역시 수성구1",
      "name": "대구광역시 수성구 두산동(코오롱하늘채 주택전시관 부근)",
      "count": 4,
      "사상자수": 4,
      "사망자수": 0,
      "중상자수": 2,
      "경상자수": 2,
      "부상신고자수": 0,
      "lon": 128.6234295,
      "lat": 35.83651293
    },
    {
      "id": 159362,
      "사고다발지ID": 2013099,
      "법정동코드": 2726010700,
      "지점코드": 27260002,
      "시도시군구명": "대구광역시 수성구2",
      "name": "대구광역시 수성구 황금동(황금네거리 부근)",
      "count": 4,
      "사상자수": 5,
      "사망자수": 0,
      "중상자수": 2,
      "경상자수": 3,
      "부상신고자수": 0,
      "lon": 128.6220069,
      "lat": 35.84010543
    },
    {
      "id": 159056,
      "사고다발지ID": 2013099,
      "법정동코드": 2726011200,
      "지점코드": 27260003,
      "시도시군구명": "대구광역시 수성구3",
      "name": "대구광역시 수성구 지산동(노인종합복지회관입구 부근)",
      "count": 5,
      "사상자수": 5,
      "사망자수": 0,
      "중상자수": 2,
      "경상자수": 3,
      "부상신고자수": 0,
      "lon": 128.6282243,
      "lat": 35.83921515
    },
    {
      "id": 159367,
      "사고다발지ID": 2013099,
      "법정동코드": 2726010800,
      "지점코드": 27260004,
      "시도시군구명": "대구광역시 수성구4",
      "name": "대구광역시 수성구 중동(북중동네거리 부근)",
      "count": 5,
      "사상자수": 5,
      "사망자수": 0,
      "중상자수": 3,
      "경상자수": 2,
      "부상신고자수": 0,
      "lon": 128.6128656,
      "lat": 35.84748635
    },
    {
      "id": 159368,
      "사고다발지ID": 2013099,
      "법정동코드": 2726010500,
      "지점코드": 27260005,
      "시도시군구명": "대구광역시 수성구5",
      "name": "대구광역시 수성구 수성동3가(수성네거리 부근)",
      "count": 5,
      "사상자수": 5,
      "사망자수": 1,
      "중상자수": 2,
      "경상자수": 2,
      "부상신고자수": 0,
      "lon": 128.6185659,
      "lat": 35.85960863
    },
    {
      "id": 162563,
      "사고다발지ID": 2013099,
      "법정동코드": 2726010100,
      "지점코드": 27260006,
      "시도시군구명": "대구광역시 수성구6",
      "name": "대구광역시 수성구 범어동(수성구청B 부근)",
      "count": 6,
      "사상자수": 6,
      "사망자수": 0,
      "중상자수": 2,
      "경상자수": 4,
      "부상신고자수": 0,
      "lon": 128.6305253,
      "lat": 35.8592574
    },
    {
      "id": 159363,
      "사고다발지ID": 2013099,
      "법정동코드": 2726010100,
      "지점코드": 27260007,
      "시도시군구명": "대구광역시 수성구7",
      "name": "대구광역시 수성구 범어동(대구시설관리공단 부근)",
      "count": 6,
      "사상자수": 6,
      "사망자수": 0,
      "중상자수": 3,
      "경상자수": 3,
      "부상신고자수": 0,
      "lon": 128.6239403,
      "lat": 35.85967207
    },
    {
      "id": 159365,
      "사고다발지ID": 2013099,
      "법정동코드": 2726010800,
      "지점코드": 27260008,
      "시도시군구명": "대구광역시 수성구8",
      "name": "대구광역시 수성구 중동(중동네거리 부근)",
      "count": 7,
      "사상자수": 7,
      "사망자수": 0,
      "중상자수": 3,
      "경상자수": 4,
      "부상신고자수": 0,
      "lon": 128.6125239,
      "lat": 35.84139404
    },
    {
      "id": 159055,
      "사고다발지ID": 2013099,
      "법정동코드": 2726010700,
      "지점코드": 27260009,
      "시도시군구명": "대구광역시 수성구9",
      "name": "대구광역시 수성구 황금동(어린이회관네거리 부근)",
      "count": 7,
      "사상자수": 7,
      "사망자수": 0,
      "중상자수": 4,
      "경상자수": 3,
      "부상신고자수": 0,
      "lon": 128.6224523,
      "lat": 35.84661026
    },
    {
      "id": 139392,
      "사고다발지ID": 2013099,
      "법정동코드": 2729011500,
      "지점코드": 27290001,
      "시도시군구명": "대구광역시 달서구1",
      "name": "대구광역시 달서구 상인동(전기공사 부근)",
      "count": 4,
      "사상자수": 4,
      "사망자수": 0,
      "중상자수": 1,
      "경상자수": 2,
      "부상신고자수": 1,
      "lon": 128.5348289,
      "lat": 35.8146881
    },
    {
      "id": 139614,
      "사고다발지ID": 2013099,
      "법정동코드": 2729012200,
      "지점코드": 27290002,
      "시도시군구명": "대구광역시 달서구2",
      "name": "대구광역시 달서구 송현동(기아자동차(주)달서지점 부근)",
      "count": 4,
      "사상자수": 4,
      "사망자수": 0,
      "중상자수": 1,
      "경상자수": 3,
      "부상신고자수": 0,
      "lon": 128.5477139,
      "lat": 35.82653134
    },
    {
      "id": 159370,
      "사고다발지ID": 2013099,
      "법정동코드": 2729010100,
      "지점코드": 27290003,
      "시도시군구명": "대구광역시 달서구3",
      "name": "대구광역시 달서구 성당동(세강병원북편 부근)",
      "count": 4,
      "사상자수": 4,
      "사망자수": 0,
      "중상자수": 2,
      "경상자수": 1,
      "부상신고자수": 1,
      "lon": 128.5528579,
      "lat": 35.8382446
    },
    {
      "id": 159373,
      "사고다발지ID": 2013099,
      "법정동코드": 2729012400,
      "지점코드": 27290004,
      "시도시군구명": "대구광역시 달서구4",
      "name": "대구광역시 달서구 본동(이동통신 부근)",
      "count": 4,
      "사상자수": 4,
      "사망자수": 0,
      "중상자수": 2,
      "경상자수": 2,
      "부상신고자수": 0,
      "lon": 128.5484053,
      "lat": 35.83718301
    },
    {
      "id": 162567,
      "사고다발지ID": 2013099,
      "법정동코드": 2729010700,
      "지점코드": 27290005,
      "시도시군구명": "대구광역시 달서구5",
      "name": "대구광역시 달서구 신당동(세원정공B 부근)",
      "count": 4,
      "사상자수": 4,
      "사망자수": 0,
      "중상자수": 2,
      "경상자수": 2,
      "부상신고자수": 0,
      "lon": 128.4917177,
      "lat": 35.84958559
    },
    {
      "id": 162568,
      "사고다발지ID": 2013099,
      "법정동코드": 2729011000,
      "지점코드": 27290006,
      "시도시군구명": "대구광역시 달서구6",
      "name": "대구광역시 달서구 장기동(장기네거리 부근)",
      "count": 4,
      "사상자수": 4,
      "사망자수": 0,
      "중상자수": 3,
      "경상자수": 1,
      "부상신고자수": 0,
      "lon": 128.5301579,
      "lat": 35.84366551
    },
    {
      "id": 159374,
      "사고다발지ID": 2013099,
      "법정동코드": 2729011600,
      "지점코드": 27290007,
      "시도시군구명": "대구광역시 달서구7",
      "name": "대구광역시 달서구 도원동(월곡네거리 부근)",
      "count": 4,
      "사상자수": 4,
      "사망자수": 0,
      "중상자수": 3,
      "경상자수": 1,
      "부상신고자수": 0,
      "lon": 128.5469886,
      "lat": 35.80842954
    },
    {
      "id": 162566,
      "사고다발지ID": 2013099,
      "법정동코드": 2729011500,
      "지점코드": 27290008,
      "시도시군구명": "대구광역시 달서구8",
      "name": "대구광역시 달서구 상인동(영남코아 부근)",
      "count": 5,
      "사상자수": 5,
      "사망자수": 0,
      "중상자수": 1,
      "경상자수": 3,
      "부상신고자수": 1,
      "lon": 128.5341495,
      "lat": 35.82263208
    },
    {
      "id": 159369,
      "사고다발지ID": 2013099,
      "법정동코드": 2729010200,
      "지점코드": 27290009,
      "시도시군구명": "대구광역시 달서구9",
      "name": "대구광역시 달서구 두류동(추종엽세무사 부근)",
      "count": 5,
      "사상자수": 6,
      "사망자수": 0,
      "중상자수": 1,
      "경상자수": 5,
      "부상신고자수": 0,
      "lon": 128.5527484,
      "lat": 35.85612233
    },
    {
      "id": 139744,
      "사고다발지ID": 2013099,
      "법정동코드": 2729011500,
      "지점코드": 27290010,
      "시도시군구명": "대구광역시 달서구10",
      "name": "대구광역시 달서구 상인동(상인네거리 부근)",
      "count": 5,
      "사상자수": 5,
      "사망자수": 0,
      "중상자수": 2,
      "경상자수": 2,
      "부상신고자수": 1,
      "lon": 128.5364177,
      "lat": 35.81855118
    },
    {
      "id": 159684,
      "사고다발지ID": 2013099,
      "법정동코드": 2729010200,
      "지점코드": 27290011,
      "시도시군구명": "대구광역시 달서구11",
      "name": "대구광역시 달서구 두류동(두류공원네거리 부근)",
      "count": 5,
      "사상자수": 5,
      "사망자수": 0,
      "중상자수": 3,
      "경상자수": 2,
      "부상신고자수": 0,
      "lon": 128.568053,
      "lat": 35.84760207
    },
    {
      "id": 159683,
      "사고다발지ID": 2013099,
      "법정동코드": 2729010700,
      "지점코드": 27290012,
      "시도시군구명": "대구광역시 달서구12",
      "name": "대구광역시 달서구 신당동(성서1단지아파트 부근)",
      "count": 5,
      "사상자수": 5,
      "사망자수": 0,
      "중상자수": 3,
      "경상자수": 2,
      "부상신고자수": 0,
      "lon": 128.4994537,
      "lat": 35.85210164
    },
    {
      "id": 159376,
      "사고다발지ID": 2013099,
      "법정동코드": 2729012200,
      "지점코드": 27290013,
      "시도시군구명": "대구광역시 달서구13",
      "name": "대구광역시 달서구 송현동(송현2동사무소 부근)",
      "count": 6,
      "사상자수": 6,
      "사망자수": 0,
      "중상자수": 3,
      "경상자수": 3,
      "부상신고자수": 0,
      "lon": 128.545412,
      "lat": 35.8331714
    },
    {
      "id": 159375,
      "사고다발지ID": 2013099,
      "법정동코드": 2729010200,
      "지점코드": 27290014,
      "시도시군구명": "대구광역시 달서구14",
      "name": "대구광역시 달서구 두류동(두류네거리 부근)",
      "count": 6,
      "사상자수": 6,
      "사망자수": 0,
      "중상자수": 4,
      "경상자수": 2,
      "부상신고자수": 0,
      "lon": 128.5579319,
      "lat": 35.85804101
    },
    {
      "id": 159682,
      "사고다발지ID": 2013099,
      "법정동코드": 2729011100,
      "지점코드": 27290015,
      "시도시군구명": "대구광역시 달서구15",
      "name": "대구광역시 달서구 용산동(이곡역사거리 부근)",
      "count": 7,
      "사상자수": 7,
      "사망자수": 0,
      "중상자수": 1,
      "경상자수": 4,
      "부상신고자수": 2,
      "lon": 128.5164612,
      "lat": 35.85096055
    },
    {
      "id": 159686,
      "사고다발지ID": 2013099,
      "법정동코드": 2729011500,
      "지점코드": 27290016,
      "시도시군구명": "대구광역시 달서구16",
      "name": "대구광역시 달서구 상인동(성일커텐 부근)",
      "count": 8,
      "사상자수": 8,
      "사망자수": 0,
      "중상자수": 1,
      "경상자수": 7,
      "부상신고자수": 0,
      "lon": 128.5367246,
      "lat": 35.8113158
    },
    {
      "id": 163236,
      "사고다발지ID": 2013099,
      "법정동코드": 2729011700,
      "지점코드": 27290017,
      "시도시군구명": "대구광역시 달서구17",
      "name": "대구광역시 달서구 진천동(진천네거리 부근)",
      "count": 9,
      "사상자수": 10,
      "사망자수": 0,
      "중상자수": 3,
      "경상자수": 5,
      "부상신고자수": 2,
      "lon": 128.5250245,
      "lat": 35.81453101
    },
    {
      "id": 159688,
      "사고다발지ID": 2013099,
      "법정동코드": 2729011400,
      "지점코드": 27290018,
      "시도시군구명": "대구광역시 달서구18",
      "name": "대구광역시 달서구 본리동(본리초교네거리 부근)",
      "count": 9,
      "사상자수": 9,
      "사망자수": 1,
      "중상자수": 4,
      "경상자수": 3,
      "부상신고자수": 1,
      "lon": 128.5364714,
      "lat": 35.84358807
    },
    {
      "id": 159689,
      "사고다발지ID": 2013099,
      "법정동코드": 2817010200,
      "지점코드": 28170001,
      "시도시군구명": "인천광역시 남구1",
      "name": "인천광역시 남구 용현동(용현사거리 부근)",
      "count": 4,
      "사상자수": 4,
      "사망자수": 0,
      "중상자수": 2,
      "경상자수": 2,
      "부상신고자수": 0,
      "lon": 126.6499225,
      "lat": 37.45615437
    },
    {
      "id": 139543,
      "사고다발지ID": 2013099,
      "법정동코드": 2818510600,
      "지점코드": 28185001,
      "시도시군구명": "인천광역시 연수구1",
      "name": "인천광역시 연수구 송도동(대우이안주상복합관리사무소 부근)",
      "count": 4,
      "사상자수": 4,
      "사망자수": 0,
      "중상자수": 1,
      "경상자수": 2,
      "부상신고자수": 1,
      "lon": 126.6498657,
      "lat": 37.39725792
    },
    {
      "id": 159693,
      "사고다발지ID": 2013099,
      "법정동코드": 2820011100,
      "지점코드": 28200001,
      "시도시군구명": "인천광역시 남동구1",
      "name": "인천광역시 남동구 고잔동(삼보건설기계산업 부근)",
      "count": 5,
      "사상자수": 5,
      "사망자수": 0,
      "중상자수": 2,
      "경상자수": 0,
      "부상신고자수": 3,
      "lon": 126.6996878,
      "lat": 37.38788365
    },
    {
      "id": 159691,
      "사고다발지ID": 2013099,
      "법정동코드": 2820010300,
      "지점코드": 28200002,
      "시도시군구명": "인천광역시 남동구2",
      "name": "인천광역시 남동구 만수동(남동구청사거리 부근)",
      "count": 6,
      "사상자수": 6,
      "사망자수": 0,
      "중상자수": 3,
      "경상자수": 3,
      "부상신고자수": 0,
      "lon": 126.7343274,
      "lat": 37.44814751
    },
    {
      "id": 159692,
      "사고다발지ID": 2013099,
      "법정동코드": 2820011000,
      "지점코드": 28200003,
      "시도시군구명": "인천광역시 남동구3",
      "name": "인천광역시 남동구 논현동(신영지엘아파트 부근)",
      "count": 6,
      "사상자수": 6,
      "사망자수": 0,
      "중상자수": 3,
      "경상자수": 3,
      "부상신고자수": 0,
      "lon": 126.730285,
      "lat": 37.4040604
    },
    {
      "id": 159690,
      "사고다발지ID": 2013099,
      "법정동코드": 2820010300,
      "지점코드": 28200004,
      "시도시군구명": "인천광역시 남동구4",
      "name": "인천광역시 남동구 만수동(외환대출금융 부근)",
      "count": 7,
      "사상자수": 8,
      "사망자수": 0,
      "중상자수": 2,
      "경상자수": 4,
      "부상신고자수": 2,
      "lon": 126.7295957,
      "lat": 37.44973515
    },
    {
      "id": 159694,
      "사고다발지ID": 2013099,
      "법정동코드": 2823710100,
      "지점코드": 28237001,
      "시도시군구명": "인천광역시 부평구1",
      "name": "인천광역시 부평구 부평동(신트리공원사거리 부근)",
      "count": 4,
      "사상자수": 4,
      "사망자수": 0,
      "중상자수": 1,
      "경상자수": 3,
      "부상신고자수": 0,
      "lon": 126.7258638,
      "lat": 37.50731819
    },
    {
      "id": 159696,
      "사고다발지ID": 2013099,
      "법정동코드": 2823710100,
      "지점코드": 28237002,
      "시도시군구명": "인천광역시 부평구2",
      "name": "인천광역시 부평구 부평동(양은성치과 부근)",
      "count": 6,
      "사상자수": 6,
      "사망자수": 0,
      "중상자수": 3,
      "경상자수": 2,
      "부상신고자수": 1,
      "lon": 126.7255482,
      "lat": 37.49855978
    },
    {
      "id": 160002,
      "사고다발지ID": 2013099,
      "법정동코드": 2823710100,
      "지점코드": 28237003,
      "시도시군구명": "인천광역시 부평구3",
      "name": "인천광역시 부평구 부평동(부흥오거리 부근)",
      "count": 6,
      "사상자수": 7,
      "사망자수": 0,
      "중상자수": 4,
      "경상자수": 3,
      "부상신고자수": 0,
      "lon": 126.7305571,
      "lat": 37.49846467
    },