{
  "park" : [
    {
      "id": 1,
      "name": "오산역 자전거주차장",
      "소재지도로명주소": "경기도 오산시 역광장로 71-1",
      "소재지지번주소": "경기도 오산시 오산동 603-27",
      "lat": 37.146941,
      "lon": 127.067501,
      "보관대수": 332,
      "설치연도": 2013,
      "설치형태": "거치형",
      "차양막설치여부": "Y",
      "공기주입기비치여부": "Y",
      "공기주입기유형": "기계식",
      "수리대설치여부": "N",
      "관리기관전화번호": "031-8036-7704",
      "관리기관명": "경기도 오산시청",
      "데이터기준일자": "2022-08-29"
    },
    {
      "id": 2,
      "name": "덕정중학교",
      "소재지도로명주소": "경기도 양주시 화합로 1397",
      "소재지지번주소": "경기도 양주시 덕정동 151-10",
      "lat": 37.84249472,
      "lon": 127.0634401,
      "보관대수": 30,
      "설치연도": null,
      "설치형태": "",
      "차양막설치여부": "Y",
      "공기주입기비치여부": "N",
      "공기주입기유형": "",
      "수리대설치여부": "N",
      "관리기관전화번호": "031-8082-6731",
      "관리기관명": "양주시 도로과",
      "데이터기준일자": "2020-05-31"
    },
    {
      "id": 3,
      "name": "고암중학교",
      "소재지도로명주소": "경기도 양주시 고암길 305-18",
      "소재지지번주소": "경기도 양주시 덕정동 210",
      "lat": 37.83445933,
      "lon": 127.0678908,
      "보관대수": 5,
      "설치연도": null,
      "설치형태": "",
      "차양막설치여부": "",
      "공기주입기비치여부": "N",
      "공기주입기유형": "",
      "수리대설치여부": "N",
      "관리기관전화번호": "031-8082-6731",
      "관리기관명": "양주시 도로과",
      "데이터기준일자": "2020-05-31"
    },
    {
      "id": 4,
      "name": "주공4단지",
      "소재지도로명주소": "경기도 양주시 고암길 305-40",
      "소재지지번주소": "경기도 양주시 덕정동 210-2",
      "lat": 37.83316162,
      "lon": 127.0684758,
      "보관대수": 150,
      "설치연도": null,
      "설치형태": "",
      "차양막설치여부": "Y",
      "공기주입기비치여부": "N",
      "공기주입기유형": "",
      "수리대설치여부": "N",
      "관리기관전화번호": "031-8082-6731",
      "관리기관명": "양주시 도로과",
      "데이터기준일자": "2020-05-31"
    },
    {
      "id": 5,
      "name": "주공5단지",
      "소재지도로명주소": "경기도 양주시 고암길 354",
      "소재지지번주소": "경기도 양주시 덕정동 235",
      "lat": 37.83567101,
      "lon": 127.066497,
      "보관대수": 300,
      "설치연도": null,
      "설치형태": "",
      "차양막설치여부": "Y",
      "공기주입기비치여부": "N",
      "공기주입기유형": "",
      "수리대설치여부": "N",
      "관리기관전화번호": "031-8082-6731",
      "관리기관명": "양주시 도로과",
      "데이터기준일자": "2020-05-31"
    },
    {
      "id": 6,
      "name": "주공7단지",
      "소재지도로명주소": "경기도 양주시 고암길 219",
      "소재지지번주소": "경기도 양주시 고암동 583",
      "lat": 37.83464672,
      "lon": 127.0738981,
      "보관대수": 150,
      "설치연도": null,
      "설치형태": "",
      "차양막설치여부": "Y",
      "공기주입기비치여부": "N",
      "공기주입기유형": "",
      "수리대설치여부": "N",
      "관리기관전화번호": "031-8082-6731",
      "관리기관명": "양주시 도로과",
      "데이터기준일자": "2020-05-31"
    },
    {
      "id": 7,
      "name": "세창리베하우스",
      "소재지도로명주소": "경기도 양주시 새터로 37",
      "소재지지번주소": "경기도 양주시 옥정동 176",
      "lat": 37.82988188,
      "lon": 127.0854206,
      "보관대수": 144,
      "설치연도": null,
      "설치형태": "",
      "차양막설치여부": "Y",
      "공기주입기비치여부": "N",
      "공기주입기유형": "",
      "수리대설치여부": "N",
      "관리기관전화번호": "031-8082-6731",
      "관리기관명": "양주시 도로과",
      "데이터기준일자": "2020-05-31"
    },
    {
      "id": 8,
      "name": "범양건영테크노아파트",
      "소재지도로명주소": "경기도 양주시 평화로 1476-20",
      "소재지지번주소": "경기도 양주시 덕계동 854",
      "lat": 37.82142972,
      "lon": 127.0498518,
      "보관대수": 77,
      "설치연도": null,
      "설치형태": "",
      "차양막설치여부": "Y",
      "공기주입기비치여부": "N",
      "공기주입기유형": "",
      "수리대설치여부": "N",
      "관리기관전화번호": "031-8082-6731",
      "관리기관명": "양주시 도로과",
      "데이터기준일자": "2020-05-31"
    },
    {
      "id": 9,
      "name": "GS1단지",
      "소재지도로명주소": "경기도 양주시 삼숭로38번길 78-30",
      "소재지지번주소": "경기도 양주시 삼숭동 686-1",
      "lat": 37.79354941,
      "lon": 127.1059241,
      "보관대수": 100,
      "설치연도": null,
      "설치형태": "",
      "차양막설치여부": "Y",
      "공기주입기비치여부": "N",
      "공기주입기유형": "",
      "수리대설치여부": "N",
      "관리기관전화번호": "031-8082-6731",
      "관리기관명": "양주시 도로과",
      "데이터기준일자": "2020-05-31"
    },
    {
      "id": 10,
      "name": "GS3단지",
      "소재지도로명주소": "경기도 양주시 삼숭로38번길 55",
      "소재지지번주소": "경기도 양주시 삼숭동 683-1",
      "lat": 37.79866684,
      "lon": 127.1059587,
      "보관대수": 100,
      "설치연도": null,
      "설치형태": "",
      "차양막설치여부": "Y",
      "공기주입기비치여부": "N",
      "공기주입기유형": "",
      "수리대설치여부": "N",
      "관리기관전화번호": "031-8082-6731",
      "관리기관명": "양주시 도로과",
      "데이터기준일자": "2020-05-31"
    },
    {
      "id": 11,
      "name": "GS5단지",
      "소재지도로명주소": "경기도 양주시 삼숭로38번길 190",
      "소재지지번주소": "경기도 양주시 삼숭동 681-1",
      "lat": 37.79984214,
      "lon": 127.1094031,
      "보관대수": 100,
      "설치연도": null,
      "설치형태": "",
      "차양막설치여부": "Y",
      "공기주입기비치여부": "N",
      "공기주입기유형": "",
      "수리대설치여부": "N",
      "관리기관전화번호": "031-8082-6731",
      "관리기관명": "양주시 도로과",
      "데이터기준일자": "2020-05-31"
    },
    {
      "id": 12,
      "name": "GS6단지",
      "소재지도로명주소": "경기도 양주시 삼숭로58번길 111",
      "소재지지번주소": "경기도 양주시 삼숭동 688",
      "lat": 37.80220584,
      "lon": 127.1059183,
      "보관대수": 180,
      "설치연도": null,
      "설치형태": "",
      "차양막설치여부": "Y",
      "공기주입기비치여부": "N",
      "공기주입기유형": "",
      "수리대설치여부": "N",
      "관리기관전화번호": "031-8082-6731",
      "관리기관명": "양주시 도로과",
      "데이터기준일자": "2020-05-31"
    },
    {
      "id": 13,
      "name": "현대아파트",
      "소재지도로명주소": "경기도 양주시 고덕로139번길 361-21",
      "소재지지번주소": "경기도 양주시 덕계동 203-6",
      "lat": 37.82065159,
      "lon": 127.0571247,
      "보관대수": 20,
      "설치연도": null,
      "설치형태": "",
      "차양막설치여부": "Y",
      "공기주입기비치여부": "N",
      "공기주입기유형": "",
      "수리대설치여부": "N",
      "관리기관전화번호": "031-8082-6731",
      "관리기관명": "양주시 도로과",
      "데이터기준일자": "2020-05-31"
    },
    {
      "id": 14,
      "name": "현진에버빌2단지",
      "소재지도로명주소": "경기도 양주시 고덕로 159",
      "소재지지번주소": "경기도 양주시 덕계동 856",
      "lat": 37.80787415,
      "lon": 127.0608305,
      "보관대수": 84,
      "설치연도": null,
      "설치형태": "",
      "차양막설치여부": "Y",
      "공기주입기비치여부": "N",
      "공기주입기유형": "",
      "수리대설치여부": "N",
      "관리기관전화번호": "031-8082-6731",
      "관리기관명": "양주시 도로과",
      "데이터기준일자": "2020-05-31"
    },
    {
      "id": 15,
      "name": "TS아파트",
      "소재지도로명주소": "경기도 양주시 부흥로 2019",
      "소재지지번주소": "경기도 양주시 고읍동 77",
      "lat": 37.80110411,
      "lon": 127.0820174,
      "보관대수": 60,
      "설치연도": null,
      "설치형태": "",
      "차양막설치여부": "Y",
      "공기주입기비치여부": "N",
      "공기주입기유형": "",
      "수리대설치여부": "N",
      "관리기관전화번호": "031-8082-6731",
      "관리기관명": "양주시 도로과",
      "데이터기준일자": "2020-05-31"
    },
    {
      "id": 16,
      "name": "남면초등학교",
      "소재지도로명주소": "경기도 양주시 남면 개나리18길 100",
      "소재지지번주소": "경기도 양주시 남면 신산리 286-2",
      "lat": 37.89386705,
      "lon": 126.9757569,
      "보관대수": 20,
      "설치연도": null,
      "설치형태": "",
      "차양막설치여부": "",
      "공기주입기비치여부": "N",
      "공기주입기유형": "",
      "수리대설치여부": "N",
      "관리기관전화번호": "031-8082-6731",
      "관리기관명": "양주시 도로과",
      "데이터기준일자": "2020-05-31"
    },
    {
      "id": 17,
      "name": "양덕분교",
      "소재지도로명주소": "경기도 양주시 남면 은남로119번길 373",
      "소재지지번주소": "경기도 양주시 남면 한산리 272-1",
      "lat": 37.90860539,
      "lon": 126.9984126,
      "보관대수": 10,
      "설치연도": null,
      "설치형태": "",
      "차양막설치여부": "",
      "공기주입기비치여부": "N",
      "공기주입기유형": "",
      "수리대설치여부": "N",
      "관리기관전화번호": "031-8082-6731",
      "관리기관명": "양주시 도로과",
      "데이터기준일자": "2020-05-31"
    },
    {
      "id": 18,
      "name": "남문중학교",
      "소재지도로명주소": "경기도 양주시 남면 개나리18길 1",
      "소재지지번주소": "경기도 양주시 남면 신산리 186-2",
      "lat": 37.89719052,
      "lon": 126.9798943,
      "보관대수": 5,
      "설치연도": null,
      "설치형태": "",
      "차양막설치여부": "",
      "공기주입기비치여부": "N",
      "공기주입기유형": "",
      "수리대설치여부": "N",
      "관리기관전화번호": "031-8082-6731",
      "관리기관명": "양주시 도로과",
      "데이터기준일자": "2020-05-31"
    },
    {
      "id": 19,
      "name": "상패초등학교",
      "소재지도로명주소": "경기도 양주시 은현면 은현로312번길 121-208",
      "소재지지번주소": "경기도 양주시 은현면 하패리 796-4",
      "lat": 37.89816226,
      "lon": 127.0265549,
      "보관대수": 12,
      "설치연도": null,
      "설치형태": "",
      "차양막설치여부": "",
      "공기주입기비치여부": "N",
      "공기주입기유형": "",
      "수리대설치여부": "N",
      "관리기관전화번호": "031-8082-6731",
      "관리기관명": "양주시 도로과",
      "데이터기준일자": "2020-05-31"
    },
    {
      "id": 20,
      "name": "효촌초등학교",
      "소재지도로명주소": "경기도 양주시 광적면 화합로248번길 18",
      "소재지지번주소": "경기도 양주시 광적면 덕도리 755",
      "lat": 37.85812862,
      "lon": 126.963346,
      "보관대수": 5,
      "설치연도": null,
      "설치형태": "",
      "차양막설치여부": "",
      "공기주입기비치여부": "N",
      "공기주입기유형": "",
      "수리대설치여부": "N",
      "관리기관전화번호": "031-8082-6731",
      "관리기관명": "양주시 도로과",
      "데이터기준일자": "2020-05-31"
    },
    {
      "id": 21,
      "name": "가납초등학교",
      "소재지도로명주소": "경기도 양주시 광적면 부흥로 793",
      "소재지지번주소": "경기도 양주시 광적면 가납리 799-2",
      "lat": 37.81944614,
      "lon": 126.9831182,
      "보관대수": 10,
      "설치연도": null,
      "설치형태": "",
      "차양막설치여부": "Y",
      "공기주입기비치여부": "N",
      "공기주입기유형": "",
      "수리대설치여부": "N",
      "관리기관전화번호": "031-8082-6731",
      "관리기관명": "양주시 도로과",
      "데이터기준일자": "2020-05-31"
    },
    {
      "id": 22,
      "name": "조양중학교",
      "소재지도로명주소": "경기도 양주시 광적면 부흥로 757",
      "소재지지번주소": "경기도 양주시 광적면 가납리 908",
      "lat": 37.8196545,
      "lon": 126.9790203,
      "보관대수": 34,
      "설치연도": null,
      "설치형태": "",
      "차양막설치여부": "Y",
      "공기주입기비치여부": "N",
      "공기주입기유형": "",
      "수리대설치여부": "N",
      "관리기관전화번호": "031-8082-6731",
      "관리기관명": "양주시 도로과",
      "데이터기준일자": "2020-05-31"
    },
    {
      "id": 23,
      "name": "연곡초등학교",
      "소재지도로명주소": "경기도 양주시 백석읍 월암로170번길 107",
      "소재지지번주소": "경기도 양주시 백석읍 연곡리 13-3",
      "lat": 37.80707641,
      "lon": 126.9618178,
      "보관대수": 24,
      "설치연도": null,
      "설치형태": "",
      "차양막설치여부": "Y",
      "공기주입기비치여부": "N",
      "공기주입기유형": "",
      "수리대설치여부": "N",
      "관리기관전화번호": "031-8082-6731",
      "관리기관명": "양주시 도로과",
      "데이터기준일자": "2020-05-31"
    },
    {
      "id": 24,
      "name": "백석초등학교",
      "소재지도로명주소": "경기도 양주시 백석읍 중앙로223번길 10-11",
      "소재지지번주소": "경기도 양주시 백석읍 오산리 524",
      "lat": 37.79632069,
      "lon": 126.9859165,
      "보관대수": 10,
      "설치연도": null,
      "설치형태": "",
      "차양막설치여부": "Y",
      "공기주입기비치여부": "N",
      "공기주입기유형": "",
      "수리대설치여부": "N",
      "관리기관전화번호": "031-8082-6731",
      "관리기관명": "양주시 도로과",
      "데이터기준일자": "2020-05-31"
    },
    {
      "id": 25,
      "name": "은봉초등학교",
      "소재지도로명주소": "경기도 양주시 백석읍 꿈나무로 321",
      "소재지지번주소": "경기도 양주시 백석읍 복지리 303-8",
      "lat": 37.78165638,
      "lon": 126.9839169,
      "보관대수": 5,
      "설치연도": null,
      "설치형태": "",
      "차양막설치여부": "",
      "공기주입기비치여부": "N",
      "공기주입기유형": "",
      "수리대설치여부": "N",
      "관리기관전화번호": "031-8082-6731",
      "관리기관명": "양주시 도로과",
      "데이터기준일자": "2020-05-31"
    },
    {
      "id": 26,
      "name": "백석중학교",
      "소재지도로명주소": "경기도 양주시 백석읍 양주산성로574번길 38",
      "소재지지번주소": "경기도 양주시 백석읍 복지리 162",
      "lat": 37.78934768,
      "lon": 126.9901548,
      "보관대수": 5,
      "설치연도": null,
      "설치형태": "",
      "차양막설치여부": "",
      "공기주입기비치여부": "N",
      "공기주입기유형": "",
      "수리대설치여부": "N",
      "관리기관전화번호": "031-8082-6731",
      "관리기관명": "양주시 도로과",
      "데이터기준일자": "2020-05-31"
    },
    {
      "id": 27,
      "name": "백석고등학교",
      "소재지도로명주소": "경기도 양주시 백석읍 꿈나무로 205",
      "소재지지번주소": "경기도 양주시 백석읍 오산리 554",
      "lat": 37.79179436,
      "lon": 126.9867394,
      "보관대수": 30,
      "설치연도": null,
      "설치형태": "",
      "차양막설치여부": "Y",
      "공기주입기비치여부": "N",
      "공기주입기유형": "",
      "수리대설치여부": "N",
      "관리기관전화번호": "031-8082-6731",
      "관리기관명": "양주시 도로과",
      "데이터기준일자": "2020-05-31"
    },
    {
      "id": 28,
      "name": "송추초등학교",
      "소재지도로명주소": "경기도 양주시 장흥면 호국로 499",
      "소재지지번주소": "경기도 양주시 장흥면 교현리 119",
      "lat": 37.71577493,
      "lon": 126.9702304,
      "보관대수": 5,
      "설치연도": null,
      "설치형태": "",
      "차양막설치여부": "",
      "공기주입기비치여부": "N",
      "공기주입기유형": "",
      "수리대설치여부": "N",
      "관리기관전화번호": "031-8082-6731",
      "관리기관명": "양주시 도로과",
      "데이터기준일자": "2020-05-31"
    },
    {
      "id": 29,
      "name": "삼상초등학교",
      "소재지도로명주소": "경기도 양주시 장흥면 일영로 641",
      "소재지지번주소": "경기도 양주시 장흥면 삼상리 288",
      "lat": 37.70010983,
      "lon": 126.9300683,
      "보관대수": 10,
      "설치연도": null,
      "설치형태": "",
      "차양막설치여부": "",
      "공기주입기비치여부": "N",
      "공기주입기유형": "",
      "수리대설치여부": "N",
      "관리기관전화번호": "031-8082-6731",
      "관리기관명": "양주시 도로과",
      "데이터기준일자": "2020-05-31"
    },
    {
      "id": 30,
      "name": "고암초등학교",
      "소재지도로명주소": "경기도 양주시 고암길 320",
      "소재지지번주소": "경기도 양주시 덕정동 208-13",
      "lat": 37.83542873,
      "lon": 127.0679326,
      "보관대수": 20,
      "설치연도": null,
      "설치형태": "",
      "차양막설치여부": "",
      "공기주입기비치여부": "N",
      "공기주입기유형": "",
      "수리대설치여부": "N",
      "관리기관전화번호": "031-8082-6731",
      "관리기관명": "양주시 도로과",
      "데이터기준일자": "2020-05-31"
    },
    {
      "id": 31,
      "name": "주원초등학교",
      "소재지도로명주소": "경기도 양주시 고암길 242",
      "소재지지번주소": "경기도 양주시 고암동 580-5",
      "lat": 37.83553749,
      "lon": 127.0728948,
      "보관대수": 5,
      "설치연도": null,
      "설치형태": "",
      "차양막설치여부": "",
      "공기주입기비치여부": "N",
      "공기주입기유형": "",
      "수리대설치여부": "N",
      "관리기관전화번호": "031-8082-6731",
      "관리기관명": "양주시 도로과",
      "데이터기준일자": "2020-05-31"
    },
    {
      "id": 32,
      "name": "회천초등학교",
      "소재지도로명주소": "경기도 양주시 고암길 73",
      "소재지지번주소": "경기도 양주시 고암동 122-1",
      "lat": 37.83265642,
      "lon": 127.0696113,
      "보관대수": 5,
      "설치연도": null,
      "설치형태": "",
      "차양막설치여부": "",
      "공기주입기비치여부": "N",
      "공기주입기유형": "",
      "수리대설치여부": "N",
      "관리기관전화번호": "031-8082-6731",
      "관리기관명": "양주시 도로과",
      "데이터기준일자": "2020-05-31"
    },
    {
      "id": 33,
      "name": "회정초등학교",
      "소재지도로명주소": "경기도 양주시 평화로 1567",
      "소재지지번주소": "경기도 양주시 회정동 344-1",
      "lat": 37.83020763,
      "lon": 127.0521659,
      "보관대수": 35,
      "설치연도": null,
      "설치형태": "",
      "차양막설치여부": "",
      "공기주입기비치여부": "N",
      "공기주입기유형": "",
      "수리대설치여부": "N",
      "관리기관전화번호": "031-8082-6731",
      "관리기관명": "양주시 도로과",
      "데이터기준일자": "2020-05-31"
    },
    {
      "id": 34,
      "name": "덕산초등학교",
      "소재지도로명주소": "경기도 양주시 평화로 1418-6",
      "소재지지번주소": "경기도 양주시 덕계동 420-1",
      "lat": 37.81801799,
      "lon": 127.0471919,
      "보관대수": 5,
      "설치연도": null,
      "설치형태": "",
      "차양막설치여부": "",
      "공기주입기비치여부": "N",
      "공기주입기유형": "",
      "수리대설치여부": "N",
      "관리기관전화번호": "031-8082-6731",
      "관리기관명": "양주시 도로과",
      "데이터기준일자": "2020-05-31"
    },
    {
      "id": 35,
      "name": "산북초등학교",
      "소재지도로명주소": "경기도 양주시 평화로1261번길 96-46",
      "소재지지번주소": "경기도 양주시 산북동 352-1",
      "lat": 37.80608863,
      "lon": 127.0391809,
      "보관대수": 5,
      "설치연도": null,
      "설치형태": "",
      "차양막설치여부": "",
      "공기주입기비치여부": "N",
      "공기주입기유형": "",
      "수리대설치여부": "N",
      "관리기관전화번호": "031-8082-6731",
      "관리기관명": "양주시 도로과",
      "데이터기준일자": "2020-05-31"
    },
    {
      "id": 36,
      "name": "광숭초등학교",
      "소재지도로명주소": "경기도 양주시 삼숭로58번길 100",
      "소재지지번주소": "경기도 양주시 삼숭동 186-6",
      "lat": 37.80154501,
      "lon": 127.107389,
      "보관대수": 5,
      "설치연도": null,
      "설치형태": "",
      "차양막설치여부": "",
      "공기주입기비치여부": "N",
      "공기주입기유형": "",
      "수리대설치여부": "N",
      "관리기관전화번호": "031-8082-6731",
      "관리기관명": "양주시 도로과",
      "데이터기준일자": "2020-05-31"
    },
    {
      "id": 37,
      "name": "덕현중학교",
      "소재지도로명주소": "경기도 양주시 고읍로35번길 21",
      "소재지지번주소": "경기도 양주시 고읍동 79-33",
      "lat": 37.80025854,
      "lon": 127.0800861,
      "보관대수": 67,
      "설치연도": null,
      "설치형태": "",
      "차양막설치여부": "Y",
      "공기주입기비치여부": "N",
      "공기주입기유형": "",
      "수리대설치여부": "N",
      "관리기관전화번호": "031-8082-6731",
      "관리기관명": "양주시 도로과",
      "데이터기준일자": "2020-05-31"
    },
    {
      "id": 38,
      "name": "가납3리 마을회관",
      "소재지도로명주소": "경기도 양주시 광적면 부흥로925번길 15",
      "소재지지번주소": "경기도 양주시 광적면 가납리 444-1",
      "lat": 37.81156194,
      "lon": 126.9927501,
      "보관대수": 7,
      "설치연도": null,
      "설치형태": "",
      "차양막설치여부": "",
      "공기주입기비치여부": "N",
      "공기주입기유형": "",
      "수리대설치여부": "N",
      "관리기관전화번호": "031-8082-6731",
      "관리기관명": "양주시 도로과",
      "데이터기준일자": "2020-05-31"
    },
    {
      "id": 39,
      "name": "양주시청",
      "소재지도로명주소": "경기도 양주시 부흥로 1533",
      "소재지지번주소": "경기도 양주시 남방동 1-1",
      "lat": 37.78556923,
      "lon": 127.0466536,
      "보관대수": 24,
      "설치연도": null,
      "설치형태": "",
      "차양막설치여부": "Y",
      "공기주입기비치여부": "N",
      "공기주입기유형": "",
      "수리대설치여부": "N",
      "관리기관전화번호": "031-8082-6731",
      "관리기관명": "양주시 도로과",
      "데이터기준일자": "2020-05-31"
    },
    {
      "id": 40,
      "name": "은현면사무소",
      "소재지도로명주소": "경기도 양주시 은현면 은현로 66",
      "소재지지번주소": "경기도 양주시 은현면 선암리 341-2",
      "lat": 37.87491101,
      "lon": 127.0247734,
      "보관대수": 7,
      "설치연도": null,
      "설치형태": "",
      "차양막설치여부": "Y",
      "공기주입기비치여부": "N",
      "공기주입기유형": "",
      "수리대설치여부": "N",
      "관리기관전화번호": "031-8082-6731",
      "관리기관명": "양주시 도로과",
      "데이터기준일자": "2020-05-31"
    },
    {
      "id": 41,
      "name": "백석읍사무소",
      "소재지도로명주소": "경기도 양주시 백석읍 중앙로223번길 46",
      "소재지지번주소": "경기도 양주시 백석읍 오산리 532",
      "lat": 37.79478177,
      "lon": 126.9852901,
      "보관대수": 10,
      "설치연도": null,
      "설치형태": "",
      "차양막설치여부": "Y",
      "공기주입기비치여부": "N",
      "공기주입기유형": "",
      "수리대설치여부": "N",
      "관리기관전화번호": "031-8082-6731",
      "관리기관명": "양주시 도로과",
      "데이터기준일자": "2020-05-31"
    },
    {
      "id": 42,
      "name": "양주1동사무소",
      "소재지도로명주소": "경기도 양주시 외미로64번길 45",
      "소재지지번주소": "경기도 양주시 남방동 119-4",
      "lat": 37.77336037,
      "lon": 127.0440716,
      "보관대수": 7,
      "설치연도": null,
      "설치형태": "",
      "차양막설치여부": "Y",
      "공기주입기비치여부": "N",
      "공기주입기유형": "",
      "수리대설치여부": "N",
      "관리기관전화번호": "031-8082-6731",
      "관리기관명": "양주시 도로과",
      "데이터기준일자": "2020-05-31"
    },
    {
      "id": 43,
      "name": "회천2동사무소",
      "소재지도로명주소": "경기도 양주시 평화로1475번길 39",
      "소재지지번주소": "경기도 양주시 덕계동 467-8",
      "lat": 37.82166163,
      "lon": 127.0467626,
      "보관대수": 17,
      "설치연도": null,
      "설치형태": "",
      "차양막설치여부": "",
      "공기주입기비치여부": "N",
      "공기주입기유형": "",
      "수리대설치여부": "N",
      "관리기관전화번호": "031-8082-6731",
      "관리기관명": "양주시 도로과",
      "데이터기준일자": "2020-05-31"
    },
    {
      "id": 44,
      "name": "회천4동사무소",
      "소재지도로명주소": "경기도 양주시 옥정로 397-7",
      "소재지지번주소": "",
      "lat": 37.83724094,
      "lon": 127.0901686,
      "보관대수": 7,
      "설치연도": null,
      "설치형태": "",
      "차양막설치여부": "Y",
      "공기주입기비치여부": "N",
      "공기주입기유형": "",
      "수리대설치여부": "N",
      "관리기관전화번호": "031-8082-6731",
      "관리기관명": "양주시 도로과",
      "데이터기준일자": "2020-05-31"
    },
    {
      "id": 45,
      "name": "덕정역",
      "소재지도로명주소": "경기도 양주시 화합로 1356",
      "소재지지번주소": "경기도 양주시 덕정동 350-14",
      "lat": 37.84428299,
      "lon": 127.0619692,
      "보관대수": 210,
      "설치연도": null,
      "설치형태": "",
      "차양막설치여부": "",
      "공기주입기비치여부": "N",
      "공기주입기유형": "",
      "수리대설치여부": "N",
      "관리기관전화번호": "031-8082-6731",
      "관리기관명": "양주시 도로과",
      "데이터기준일자": "2020-05-31"
    },
    {
      "id": 46,
      "name": "롯데마트",
      "소재지도로명주소": "경기도 양주시 평화로 1547",
      "소재지지번주소": "경기도 양주시 회정동 351-2",
      "lat": 37.82755502,
      "lon": 127.0526002,
      "보관대수": 20,
      "설치연도": null,
      "설치형태": "",
      "차양막설치여부": "",
      "공기주입기비치여부": "N",
      "공기주입기유형": "",
      "수리대설치여부": "N",
      "관리기관전화번호": "031-8082-6731",
      "관리기관명": "양주시 도로과",
      "데이터기준일자": "2020-05-31"
    },
    {
      "id": 47,
      "name": "한승아파트",
      "소재지도로명주소": "경기도 양주시 고덕로 108-59",
      "소재지지번주소": "경기도 양주시 산북동 1",
      "lat": 37.80986365,
      "lon": 127.0530055,
      "보관대수": 160,
      "설치연도": null,
      "설치형태": "",
      "차양막설치여부": "Y",
      "공기주입기비치여부": "N",
      "공기주입기유형": "",
      "수리대설치여부": "N",
      "관리기관전화번호": "031-8082-6731",
      "관리기관명": "양주시 도로과",
      "데이터기준일자": "2020-05-31"
    },
    {
      "id": 48,
      "name": "주공6단지",
      "소재지도로명주소": "경기도 양주시 고암길 224-13",
      "소재지지번주소": "경기도 양주시 고암동 580",
      "lat": 37.83522315,
      "lon": 127.074185,
      "보관대수": 120,
      "설치연도": null,
      "설치형태": "",
      "차양막설치여부": "Y",
      "공기주입기비치여부": "N",
      "공기주입기유형": "",
      "수리대설치여부": "N",
      "관리기관전화번호": "031-8082-6731",
      "관리기관명": "양주시 도로과",
      "데이터기준일자": "2020-05-31"
    },
    {
      "id": 49,
      "name": "주공8단지",
      "소재지도로명주소": "경기도 양주시 고암길 172-14",
      "소재지지번주소": "경기도 양주시 고암동 584",
      "lat": 37.83229969,
      "lon": 127.0753861,
      "보관대수": 200,
      "설치연도": null,
      "설치형태": "",
      "차양막설치여부": "Y",
      "공기주입기비치여부": "N",
      "공기주입기유형": "",
      "수리대설치여부": "N",
      "관리기관전화번호": "031-8082-6731",
      "관리기관명": "양주시 도로과",
      "데이터기준일자": "2020-05-31"
    },
    {
      "id": 50,
      "name": "성우아침의미소아파트",
      "소재지도로명주소": "경기도 양주시 부흥로 2152-11",
      "소재지지번주소": "경기도 양주시 삼숭동 569",
      "lat": 37.80379524,
      "lon": 127.0929894,
      "보관대수": 110,
      "설치연도": null,
      "설치형태": "",
      "차양막설치여부": "Y",
      "공기주입기비치여부": "N",
      "공기주입기유형": "",
      "수리대설치여부": "N",
      "관리기관전화번호": "031-8082-6731",
      "관리기관명": "양주시 도로과",
      "데이터기준일자": "2020-05-31"
    },
    {
      "id": 51,
      "name": "GS2단지",
      "소재지도로명주소": "경기도 양주시 삼숭로38번길 78-12",
      "소재지지번주소": "경기도 양주시 삼숭동 684-1",
      "lat": 37.79610473,
      "lon": 127.1016133,
      "보관대수": 50,
      "설치연도": null,
      "설치형태": "",
      "차양막설치여부": "Y",
      "공기주입기비치여부": "N",
      "공기주입기유형": "",
      "수리대설치여부": "N",
      "관리기관전화번호": "031-8082-6731",
      "관리기관명": "양주시 도로과",
      "데이터기준일자": "2020-05-31"
    },
    {
      "id": 52,
      "name": "GS4단지",
      "소재지도로명주소": "경기도 양주시 삼숭로38번길 191",
      "소재지지번주소": "경기도 양주시 삼숭동 682-1",
      "lat": 37.79909754,
      "lon": 127.1078896,
      "보관대수": 130,
      "설치연도": null,
      "설치형태": "",
      "차양막설치여부": "Y",
      "공기주입기비치여부": "N",
      "공기주입기유형": "",
      "수리대설치여부": "N",
      "관리기관전화번호": "031-8082-6731",
      "관리기관명": "양주시 도로과",
      "데이터기준일자": "2020-05-31"
    },
    {
      "id": 53,
      "name": "GS7단지",
      "소재지도로명주소": "경기도 양주시 삼숭로58번길 141",
      "소재지지번주소": "경기도 양주시 삼숭동 689",
      "lat": 37.80404228,
      "lon": 127.1035772,
      "보관대수": 100,
      "설치연도": null,
      "설치형태": "",
      "차양막설치여부": "Y",
      "공기주입기비치여부": "N",
      "공기주입기유형": "",
      "수리대설치여부": "N",
      "관리기관전화번호": "031-8082-6731",
      "관리기관명": "양주시 도로과",
      "데이터기준일자": "2020-05-31"
    },
    {
      "id": 54,
      "name": "현진에버빌1단지",
      "소재지도로명주소": "경기도 양주시 고덕로 156",
      "소재지지번주소": "경기도 양주시 덕계동 855",
      "lat": 37.80690156,
      "lon": 127.0599576,
      "보관대수": 160,
      "설치연도": null,
      "설치형태": "",
      "차양막설치여부": "Y",
      "공기주입기비치여부": "N",
      "공기주입기유형": "",
      "수리대설치여부": "N",
      "관리기관전화번호": "031-8082-6731",
      "관리기관명": "양주시 도로과",
      "데이터기준일자": "2020-05-31"
    },
    {
      "id": 55,
      "name": "나래아파트",
      "소재지도로명주소": "경기도 양주시 부흥로 2162",
      "소재지지번주소": "경기도 양주시 삼숭동 564",
      "lat": 37.80650772,
      "lon": 127.0945008,
      "보관대수": 70,
      "설치연도": null,
      "설치형태": "",
      "차양막설치여부": "Y",
      "공기주입기비치여부": "N",
      "공기주입기유형": "",
      "수리대설치여부": "N",
      "관리기관전화번호": "031-8082-6731",
      "관리기관명": "양주시 도로과",
      "데이터기준일자": "2020-05-31"
    },
    {
      "id": 56,
      "name": "봉암초등학교",
      "소재지도로명주소": "경기도 양주시 은현면 삼육사로 473",
      "소재지지번주소": "경기도 양주시 은현면 봉암리 403-3",
      "lat": 37.9108468,
      "lon": 127.005754,
      "보관대수": 5,
      "설치연도": null,
      "설치형태": "",
      "차양막설치여부": "",
      "공기주입기비치여부": "N",
      "공기주입기유형": "",
      "수리대설치여부": "N",
      "관리기관전화번호": "031-8082-6731",
      "관리기관명": "양주시 도로과",
      "데이터기준일자": "2020-05-31"
    },
    {
      "id": 57,
      "name": "상수초등학교",
      "소재지도로명주소": "경기도 양주시 남면 화합로 503",
      "소재지지번주소": "경기도 양주시 남면 상수리 443-2",
      "lat": 37.86899917,
      "lon": 126.9879712,
      "보관대수": 5,
      "설치연도": null,
      "설치형태": "",
      "차양막설치여부": "",
      "공기주입기비치여부": "N",
      "공기주입기유형": "",
      "수리대설치여부": "N",
      "관리기관전화번호": "031-8082-6731",
      "관리기관명": "양주시 도로과",
      "데이터기준일자": "2020-05-31"
    },
    {
      "id": 58,
      "name": "남문고등학교",
      "소재지도로명주소": "경기도 양주시 남면 개나리18길 1",
      "소재지지번주소": "경기도 양주시 남면 신산리 186-2",
      "lat": 37.89719052,
      "lon": 126.9798943,
      "보관대수": 5,
      "설치연도": null,
      "설치형태": "",
      "차양막설치여부": "",
      "공기주입기비치여부": "N",
      "공기주입기유형": "",
      "수리대설치여부": "N",
      "관리기관전화번호": "031-8082-6731",
      "관리기관명": "양주시 도로과",
      "데이터기준일자": "2020-05-31"
    },
    {
      "id": 59,
      "name": "은현초등학교",
      "소재지도로명주소": "경기도 양주시 은현면 화합로 912-20",
      "소재지지번주소": "경기도 양주시 은현면 선암리 553-2",
      "lat": 37.86433427,
      "lon": 127.022747,
      "보관대수": 5,
      "설치연도": null,
      "설치형태": "",
      "차양막설치여부": "",
      "공기주입기비치여부": "N",
      "공기주입기유형": "",
      "수리대설치여부": "N",
      "관리기관전화번호": "031-8082-6731",
      "관리기관명": "양주시 도로과",
      "데이터기준일자": "2020-05-31"
    },
    {
      "id": 60,
      "name": "덕도초등학교",
      "소재지도로명주소": "경기도 양주시 광적면 광적로224번길 122",
      "소재지지번주소": "경기도 양주시 광적면 석우리 525-14",
      "lat": 37.8405564,
      "lon": 126.9775693,
      "보관대수": 21,
      "설치연도": null,
      "설치형태": "",
      "차양막설치여부": "",
      "공기주입기비치여부": "N",
      "공기주입기유형": "",
      "수리대설치여부": "N",
      "관리기관전화번호": "031-8082-6731",
      "관리기관명": "양주시 도로과",
      "데이터기준일자": "2020-05-31"
    },
    {
      "id": 61,
      "name": "덕정초등학교",
      "소재지도로명주소": "경기도 양주시 덕정1길 28",
      "소재지지번주소": "경기도 양주시 덕정동 123",
      "lat": 37.84631476,
      "lon": 127.063448,
      "보관대수": 5,
      "설치연도": null,
      "설치형태": "",
      "차양막설치여부": "",
      "공기주입기비치여부": "N",
      "공기주입기유형": "",
      "수리대설치여부": "N",
      "관리기관전화번호": "031-8082-6731",
      "관리기관명": "양주시 도로과",
      "데이터기준일자": "2020-05-31"
    },
    {
      "id": 62,
      "name": "칠봉초등학교",
      "소재지도로명주소": "경기도 양주시 회정로 156",
      "소재지지번주소": "경기도 양주시 고암동 121",
      "lat": 37.83808694,
      "lon": 127.0703344,
      "보관대수": 5,
      "설치연도": null,
      "설치형태": "",
      "차양막설치여부": "",
      "공기주입기비치여부": "N",
      "공기주입기유형": "",
      "수리대설치여부": "N",
      "관리기관전화번호": "031-8082-6731",
      "관리기관명": "양주시 도로과",
      "데이터기준일자": "2020-05-31"
    },
    {
      "id": 63,
      "name": "천보초등학교",
      "소재지도로명주소": "경기도 양주시 옥정동로9가길 31-15",
      "소재지지번주소": "",
      "lat": 37.83355046,
      "lon": 127.0949715,
      "보관대수": 20,
      "설치연도": null,
      "설치형태": "",
      "차양막설치여부": "",
      "공기주입기비치여부": "N",
      "공기주입기유형": "",
      "수리대설치여부": "N",
      "관리기관전화번호": "031-8082-6731",
      "관리기관명": "양주시 도로과",
      "데이터기준일자": "2020-05-31"
    },
    {
      "id": 64,
      "name": "덕계초등학교",
      "소재지도로명주소": "경기도 양주시 평화로1489번길 29",
      "소재지지번주소": "경기도 양주시 덕계동 524-9",
      "lat": 37.82302719,
      "lon": 127.0474813,
      "보관대수": 5,
      "설치연도": null,
      "설치형태": "",
      "차양막설치여부": "",
      "공기주입기비치여부": "N",
      "공기주입기유형": "",
      "수리대설치여부": "N",
      "관리기관전화번호": "031-8082-6731",
      "관리기관명": "양주시 도로과",
      "데이터기준일자": "2020-05-31"
    },
    {
      "id": 65,
      "name": "도둔초등학교",
      "소재지도로명주소": "경기도 양주시 고덕로 89-1",
      "소재지지번주소": "경기도 양주시 덕계동 315-5",
      "lat": 37.81379685,
      "lon": 127.0576555,
      "보관대수": 5,
      "설치연도": null,
      "설치형태": "",
      "차양막설치여부": "",
      "공기주입기비치여부": "N",
      "공기주입기유형": "",
      "수리대설치여부": "N",
      "관리기관전화번호": "031-8082-6731",
      "관리기관명": "양주시 도로과",
      "데이터기준일자": "2020-05-31"
    },
    {
      "id": 66,
      "name": "회천중학교",
      "소재지도로명주소": "경기도 양주시 고암길 77",
      "소재지지번주소": "경기도 양주시 고암동 122-2",
      "lat": 37.83264481,
      "lon": 127.0709381,
      "보관대수": 40,
      "설치연도": null,
      "설치형태": "",
      "차양막설치여부": "Y",
      "공기주입기비치여부": "N",
      "공기주입기유형": "",
      "수리대설치여부": "N",
      "관리기관전화번호": "031-8082-6731",
      "관리기관명": "양주시 도로과",
      "데이터기준일자": "2020-05-31"
    },
    {
      "id": 67,
      "name": "덕계중학교",
      "소재지도로명주소": "경기도 양주시 평화로1416번길 66-13",
      "소재지지번주소": "경기도 양주시 덕계동 406-2",
      "lat": 37.81620408,
      "lon": 127.0500436,
      "보관대수": 40,
      "설치연도": null,
      "설치형태": "",
      "차양막설치여부": "Y",
      "공기주입기비치여부": "N",
      "공기주입기유형": "",
      "수리대설치여부": "N",
      "관리기관전화번호": "031-8082-6731",
      "관리기관명": "양주시 도로과",
      "데이터기준일자": "2020-05-31"
    },
    {
      "id": 68,
      "name": "덕정고등학교",
      "소재지도로명주소": "경기도 양주시 화합로 1488",
      "소재지지번주소": "경기도 양주시 고암동 121-1",
      "lat": 37.83718151,
      "lon": 127.0717876,
      "보관대수": 16,
      "설치연도": null,
      "설치형태": "",
      "차양막설치여부": "Y",
      "공기주입기비치여부": "N",
      "공기주입기유형": "",
      "수리대설치여부": "N",
      "관리기관전화번호": "031-8082-6731",
      "관리기관명": "양주시 도로과",
      "데이터기준일자": "2020-05-31"
    },
    {
      "id": 69,
      "name": "덕계고등학교",
      "소재지도로명주소": "경기도 양주시 평화로1489번길 34",
      "소재지지번주소": "경기도 양주시 덕계동 524-1",
      "lat": 37.82428474,
      "lon": 127.04795,
      "보관대수": 26,
      "설치연도": null,
      "설치형태": "",
      "차양막설치여부": "",
      "공기주입기비치여부": "N",
      "공기주입기유형": "",
      "수리대설치여부": "N",
      "관리기관전화번호": "031-8082-6731",
      "관리기관명": "양주시 도로과",
      "데이터기준일자": "2020-05-31"
    },
    {
      "id": 70,
      "name": "유양초등학교",
      "소재지도로명주소": "경기도 양주시 부흥로 1373-7",
      "소재지지번주소": "경기도 양주시 유양동 511-1",
      "lat": 37.78588161,
      "lon": 127.0274047,
      "보관대수": 5,
      "설치연도": null,
      "설치형태": "",
      "차양막설치여부": "",
      "공기주입기비치여부": "N",
      "공기주입기유형": "",
      "수리대설치여부": "N",
      "관리기관전화번호": "031-8082-6731",
      "관리기관명": "양주시 도로과",
      "데이터기준일자": "2020-05-31"
    },
    {
      "id": 71,
      "name": "덕현초등학교",
      "소재지도로명주소": "경기도 양주시 부흥로 1989",
      "소재지지번주소": "경기도 양주시 고읍동 80-2",
      "lat": 37.79963817,
      "lon": 127.0808349,
      "보관대수": 40,
      "설치연도": null,
      "설치형태": "",
      "차양막설치여부": "Y",
      "공기주입기비치여부": "N",
      "공기주입기유형": "",
      "수리대설치여부": "N",
      "관리기관전화번호": "031-8082-6731",
      "관리기관명": "양주시 도로과",
      "데이터기준일자": "2020-05-31"
    },
    {
      "id": 72,
      "name": "삼숭중학교",
      "소재지도로명주소": "경기도 양주시 삼숭로38번길 136",
      "소재지지번주소": "경기도 양주시 삼숭동 679-1",
      "lat": 37.7977995,
      "lon": 127.1086053,
      "보관대수": 31,
      "설치연도": null,
      "설치형태": "",
      "차양막설치여부": "Y",
      "공기주입기비치여부": "N",
      "공기주입기유형": "",
      "수리대설치여부": "N",
      "관리기관전화번호": "031-8082-6731",
      "관리기관명": "양주시 도로과",
      "데이터기준일자": "2020-05-31"
    },
    {
      "id": 73,
      "name": "삼숭고등학교",
      "소재지도로명주소": "경기도 양주시 삼숭로38번길 78-52",
      "소재지지번주소": "경기도 양주시 삼숭동 680-1",
      "lat": 37.79490308,
      "lon": 127.1074429,
      "보관대수": 10,
      "설치연도": null,
      "설치형태": "",
      "차양막설치여부": "",
      "공기주입기비치여부": "N",
      "공기주입기유형": "",
      "수리대설치여부": "N",
      "관리기관전화번호": "031-8082-6731",
      "관리기관명": "양주시 도로과",
      "데이터기준일자": "2020-05-31"
    },
    {
      "id": 74,
      "name": "조양중학교 승강장",
      "소재지도로명주소": "",
      "소재지지번주소": "경기도 양주시 광적면 광석리 산 45-1",
      "lat": 37.818801,
      "lon": 126.980151,
      "보관대수": 10,
      "설치연도": null,
      "설치형태": "",
      "차양막설치여부": "",
      "공기주입기비치여부": "N",
      "공기주입기유형": "",
      "수리대설치여부": "N",
      "관리기관전화번호": "031-8082-6731",
      "관리기관명": "양주시 도로과",
      "데이터기준일자": "2020-05-31"
    },
    {
      "id": 75,
      "name": "가납1리 선경빌라",
      "소재지도로명주소": "경기도 양주시 광적면 가래비길 155",
      "소재지지번주소": "경기도 양주시 광적면 석우리 403-6",
      "lat": 37.82647352,
      "lon": 126.9825441,
      "보관대수": 10,
      "설치연도": null,
      "설치형태": "",
      "차양막설치여부": "",
      "공기주입기비치여부": "N",
      "공기주입기유형": "",
      "수리대설치여부": "N",
      "관리기관전화번호": "031-8082-6731",
      "관리기관명": "양주시 도로과",
      "데이터기준일자": "2020-05-31"
    },
    {
      "id": 76,
      "name": "양주경찰서",
      "소재지도로명주소": "경기도 양주시 평화로 1699",
      "소재지지번주소": "경기도 양주시 회정동 84-7",
      "lat": 37.84081243,
      "lon": 127.0548954,
      "보관대수": 20,
      "설치연도": null,
      "설치형태": "",
      "차양막설치여부": "Y",
      "공기주입기비치여부": "N",
      "공기주입기유형": "",
      "수리대설치여부": "N",
      "관리기관전화번호": "031-8082-6731",
      "관리기관명": "양주시 도로과",
      "데이터기준일자": "2020-05-31"
    },
    {
      "id": 77,
      "name": "남면사무소",
      "소재지도로명주소": "경기도 양주시 남면 개나리17길 6",
      "소재지지번주소": "경기도 양주시 남면 신산리 257-2",
      "lat": 37.89812691,
      "lon": 126.9767242,
      "보관대수": 7,
      "설치연도": null,
      "설치형태": "",
      "차양막설치여부": "Y",
      "공기주입기비치여부": "N",
      "공기주입기유형": "",
      "수리대설치여부": "N",
      "관리기관전화번호": "031-8082-6731",
      "관리기관명": "양주시 도로과",
      "데이터기준일자": "2020-05-31"
    },
    {
      "id": 78,
      "name": "광적면사무소",
      "소재지도로명주소": "경기도 양주시 광적면 가래비길 93",
      "소재지지번주소": "경기도 양주시 광적면 가납리 848-2",
      "lat": 37.82459248,
      "lon": 126.9836304,
      "보관대수": 10,
      "설치연도": null,
      "설치형태": "",
      "차양막설치여부": "",
      "공기주입기비치여부": "N",
      "공기주입기유형": "",
      "수리대설치여부": "N",
      "관리기관전화번호": "031-8082-6731",
      "관리기관명": "양주시 도로과",
      "데이터기준일자": "2020-05-31"
    },
    {
      "id": 79,
      "name": "장흥면사무소",
      "소재지도로명주소": "경기도 양주시 장흥면 권율로 7",
      "소재지지번주소": "경기도 양주시 장흥면 일영리 137-2",
      "lat": 37.71788305,
      "lon": 126.941067,
      "보관대수": 7,
      "설치연도": null,
      "설치형태": "",
      "차양막설치여부": "Y",
      "공기주입기비치여부": "N",
      "공기주입기유형": "",
      "수리대설치여부": "N",
      "관리기관전화번호": "031-8082-6731",
      "관리기관명": "양주시 도로과",
      "데이터기준일자": "2020-05-31"
    },
    {
      "id": 80,
      "name": "양주2동사무소",
      "소재지도로명주소": "경기도 양주시 고읍로 77",
      "소재지지번주소": "경기도 양주시 만송동 695",
      "lat": 37.79689598,
      "lon": 127.0803459,
      "보관대수": 15,
      "설치연도": null,
      "설치형태": "",
      "차양막설치여부": "",
      "공기주입기비치여부": "N",
      "공기주입기유형": "",
      "수리대설치여부": "N",
      "관리기관전화번호": "031-8082-6731",
      "관리기관명": "양주시 도로과",
      "데이터기준일자": "2020-05-31"
    },
    {
      "id": 81,
      "name": "회천1동사무소",
      "소재지도로명주소": "경기도 양주시 덕정길 67",
      "소재지지번주소": "경기도 양주시 덕정동 140-1",
      "lat": 37.84417261,
      "lon": 127.0661365,
      "보관대수": 5,
      "설치연도": null,
      "설치형태": "",
      "차양막설치여부": "",
      "공기주입기비치여부": "N",
      "공기주입기유형": "",
      "수리대설치여부": "N",
      "관리기관전화번호": "031-8082-6731",
      "관리기관명": "양주시 도로과",
      "데이터기준일자": "2020-05-31"
    },
    {
      "id": 82,
      "name": "회천3동사무소",
      "소재지도로명주소": "경기도 양주시 회정로 143",
      "소재지지번주소": "경기도 양주시 덕정동 206-6",
      "lat": 37.8378283,
      "lon": 127.0689255,
      "보관대수": 3,
      "설치연도": null,
      "설치형태": "",
      "차양막설치여부": "",
      "공기주입기비치여부": "N",
      "공기주입기유형": "",
      "수리대설치여부": "N",
      "관리기관전화번호": "031-8082-6731",
      "관리기관명": "양주시 도로과",
      "데이터기준일자": "2020-05-31"
    },
    {
      "id": 83,
      "name": "양주역",
      "소재지도로명주소": "경기도 양주시 평화로 919",
      "소재지지번주소": "경기도 양주시 남방동 94-1",
      "lat": 37.77365562,
      "lon": 127.0447891,
      "보관대수": 100,
      "설치연도": null,
      "설치형태": "",
      "차양막설치여부": "",
      "공기주입기비치여부": "N",
      "공기주입기유형": "",
      "수리대설치여부": "N",
      "관리기관전화번호": "031-8082-6731",
      "관리기관명": "양주시 도로과",
      "데이터기준일자": "2020-05-31"
    },
    {
      "id": 84,
      "name": "덕계역",
      "소재지도로명주소": "경기도 양주시 고덕로139번길 317",
      "소재지지번주소": "경기도 양주시 덕계동 209-5",
      "lat": 37.81877422,
      "lon": 127.0566554,
      "보관대수": 60,
      "설치연도": null,
      "설치형태": "",
      "차양막설치여부": "",
      "공기주입기비치여부": "N",
      "공기주입기유형": "",
      "수리대설치여부": "N",
      "관리기관전화번호": "031-8082-6731",
      "관리기관명": "양주시 도로과",
      "데이터기준일자": "2020-05-31"
    },
    {
      "id": 85,
      "name": "이마트",
      "소재지도로명주소": "경기도 양주시 평화로 1713",
      "소재지지번주소": "경기도 양주시 회정동 98",
      "lat": 37.8417499,
      "lon": 127.0538509,
      "보관대수": 21,
      "설치연도": null,
      "설치형태": "",
      "차양막설치여부": "",
      "공기주입기비치여부": "N",
      "공기주입기유형": "",
      "수리대설치여부": "N",
      "관리기관전화번호": "031-8082-6731",
      "관리기관명": "양주시 도로과",
      "데이터기준일자": "2020-05-31"
    },
    {
      "id": 86,
      "name": "리치마트",
      "소재지도로명주소": "경기도 양주시 평화로 1417",
      "소재지지번주소": "경기도 양주시 덕계동 694-6",
      "lat": 37.81749274,
      "lon": 127.0448519,
      "보관대수": 5,
      "설치연도": null,
      "설치형태": "",
      "차양막설치여부": "",
      "공기주입기비치여부": "N",
      "공기주입기유형": "",
      "수리대설치여부": "N",
      "관리기관전화번호": "031-8082-6731",
      "관리기관명": "양주시 도로과",
      "데이터기준일자": "2020-05-31"
    },
    {
      "id": 87,
      "name": "대우푸르지오",
      "소재지도로명주소": "경기도 양주시 고덕로 87-1",
      "소재지지번주소": "경기도 양주시 덕계동 852",
      "lat": 37.8123381,
      "lon": 127.0559872,
      "보관대수": 180,
      "설치연도": null,
      "설치형태": "",
      "차양막설치여부": "Y",
      "공기주입기비치여부": "N",
      "공기주입기유형": "",
      "수리대설치여부": "N",
      "관리기관전화번호": "031-8082-6731",
      "관리기관명": "양주시 도로과",
      "데이터기준일자": "2020-05-31"
    },
    {
      "id": 88,
      "name": "주공1단지",
      "소재지도로명주소": "경기도 양주시 화합로1426번길 39",
      "소재지지번주소": "경기도 양주시 덕정동 164",
      "lat": 37.83845893,
      "lon": 127.0689897,
      "보관대수": 120,
      "설치연도": null,
      "설치형태": "",
      "차양막설치여부": "Y",
      "공기주입기비치여부": "N",
      "공기주입기유형": "",
      "수리대설치여부": "N",
      "관리기관전화번호": "031-8082-6731",
      "관리기관명": "양주시 도로과",
      "데이터기준일자": "2020-05-31"
    },
    {
      "id": 89,
      "name": "주공2단지",
      "소재지도로명주소": "경기도 양주시 고암길 306-40",
      "소재지지번주소": "경기도 양주시 고암동 121-2",
      "lat": 37.83597098,
      "lon": 127.0712003,
      "보관대수": 250,
      "설치연도": null,
      "설치형태": "",
      "차양막설치여부": "Y",
      "공기주입기비치여부": "N",
      "공기주입기유형": "",
      "수리대설치여부": "N",
      "관리기관전화번호": "031-8082-6731",
      "관리기관명": "양주시 도로과",
      "데이터기준일자": "2020-05-31"
    },
    {
      "id": 90,
      "name": "주공3단지",
      "소재지도로명주소": "경기도 양주시 고암길 275",
      "소재지지번주소": "경기도 양주시 고암동 122",
      "lat": 37.83451489,
      "lon": 127.0714488,
      "보관대수": 150,
      "설치연도": null,
      "설치형태": "",
      "차양막설치여부": "Y",
      "공기주입기비치여부": "N",
      "공기주입기유형": "",
      "수리대설치여부": "N",
      "관리기관전화번호": "031-8082-6731",
      "관리기관명": "양주시 도로과",
      "데이터기준일자": "2020-05-31"
    },
    {
      "id": 91,
      "name": "중산동 안곡고 정류장",
      "소재지도로명주소": "경기도 고양시 일산동구 하늘마을로 75",
      "소재지지번주소": "경기도 고양시 일산동구 중산동 1718",
      "lat": 37.682039,
      "lon": 126.7872086,
      "보관대수": 5,
      "설치연도": null,
      "설치형태": "거치형",
      "차양막설치여부": "",
      "공기주입기비치여부": "N",
      "공기주입기유형": "",
      "수리대설치여부": "N",
      "관리기관전화번호": "031-8075-6315",
      "관리기관명": "경기도 고양시 일산동구청",
      "데이터기준일자": "2020-11-26"
    },
    {
      "id": 92,
      "name": "풍동 애니골 입구 정류장",
      "소재지도로명주소": "경기도 고양시 일산동구 고양대로 892",
      "소재지지번주소": "경기도 고양시 일산동구 풍동 660-58",
      "lat": 37.6780062,
      "lon": 126.7939809,
      "보관대수": 10,
      "설치연도": null,
      "설치형태": "거치형",
      "차양막설치여부": "",
      "공기주입기비치여부": "N",
      "공기주입기유형": "",
      "수리대설치여부": "N",
      "관리기관전화번호": "031-8075-6315",
      "관리기관명": "경기도 고양시 일산동구청",
      "데이터기준일자": "2020-11-26"
    },
    {
      "id": 93,
      "name": "식사동 1131번지 정류장",
      "소재지도로명주소": "경기도 고양시 일산동구 고양대로 1016",
      "소재지지번주소": "경기도 고양시 일산동구 식사동 1131",
      "lat": 37.6731156,
      "lon": 126.8057784,
      "보관대수": 10,
      "설치연도": null,
      "설치형태": "거치형",
      "차양막설치여부": "Y",
      "공기주입기비치여부": "N",
      "공기주입기유형": "",
      "수리대설치여부": "N",
      "관리기관전화번호": "031-8075-6315",
      "관리기관명": "경기도 고양시 일산동구청",
      "데이터기준일자": "2020-11-26"
    },
    {
      "id": 94,
      "name": "식사동 식사오거리 정류장",
      "소재지도로명주소": "경기도 고양시 일산동구 백마로 591",
      "소재지지번주소": "경기도 고양시 일산동구 식사동 1423-3",
      "lat": 37.66631807,
      "lon": 126.8129186,
      "보관대수": 15,
      "설치연도": null,
      "설치형태": "거치형",
      "차양막설치여부": "",
      "공기주입기비치여부": "N",
      "공기주입기유형": "",
      "수리대설치여부": "N",
      "관리기관전화번호": "031-8075-6315",
      "관리기관명": "경기도 고양시 일산동구청",
      "데이터기준일자": "2020-11-26"
    },
    {
      "id": 95,
      "name": "풍동 1278-2번지 정류장",
      "소재지도로명주소": "경기도 고양시 일산동구 숲속마을로 20",
      "소재지지번주소": "경기도 고양시 일산동구 풍동 1278-2",
      "lat": 37.667286,
      "lon": 126.801056,
      "보관대수": 10,
      "설치연도": null,
      "설치형태": "휀스형",
      "차양막설치여부": "",
      "공기주입기비치여부": "N",
      "공기주입기유형": "",
      "수리대설치여부": "N",
      "관리기관전화번호": "031-8075-6315",
      "관리기관명": "경기도 고양시 일산동구청",
      "데이터기준일자": "2020-11-26"
    },
    {
      "id": 96,
      "name": "숲속마을2단지 정류장",
      "소재지도로명주소": "경기도 고양시 일산동구 숲속마을1로 55",
      "소재지지번주소": "경기도 고양시 일산동구 풍동 1286",
      "lat": 37.66610867,
      "lon": 126.7995313,
      "보관대수": 10,
      "설치연도": null,
      "설치형태": "거치형",
      "차양막설치여부": "",
      "공기주입기비치여부": "N",
      "공기주입기유형": "",
      "수리대설치여부": "N",
      "관리기관전화번호": "031-8075-6315",
      "관리기관명": "경기도 고양시 일산동구청",
      "데이터기준일자": "2020-11-26"
    },
    {
      "id": 97,
      "name": "풍동 1286-1번지 정류장",
      "소재지도로명주소": "경기도 고양시 일산동구 숲속마을1로 55",
      "소재지지번주소": "경기도 고양시 일산동구 풍동 1286-1",
      "lat": 37.66610867,
      "lon": 126.7995313,
      "보관대수": 10,
      "설치연도": null,
      "설치형태": "휀스형",
      "차양막설치여부": "",
      "공기주입기비치여부": "N",
      "공기주입기유형": "",
      "수리대설치여부": "N",
      "관리기관전화번호": "031-8075-6315",
      "관리기관명": "경기도 고양시 일산동구청",
      "데이터기준일자": "2020-11-26"
    },
    {
      "id": 98,
      "name": "풍산역 앞",
      "소재지도로명주소": "경기도 고양시 일산동구 경의로 486",
      "소재지지번주소": "경기도 고양시 일산동구 풍동 1160-12",
      "lat": 37.67231328,
      "lon": 126.786453,
      "보관대수": 10,
      "설치연도": null,
      "설치형태": "거치형",
      "차양막설치여부": "Y",
      "공기주입기비치여부": "Y",
      "공기주입기유형": "수동식",
      "수리대설치여부": "N",
      "관리기관전화번호": "031-8075-6315",
      "관리기관명": "경기도 고양시 일산동구청",
      "데이터기준일자": "2020-11-26"
    },
    {
      "id": 99,
      "name": "정발산동 1146-2번지 정류장(명가원건너)",
      "소재지도로명주소": "경기도 고양시 일산동구 일산로 447",
      "소재지지번주소": "경기도 고양시 일산동구 정발산동 1146-2",
      "lat": 37.6733339,
      "lon": 126.7770823,
      "보관대수": 35,
      "설치연도": null,
      "설치형태": "휀스형",
      "차양막설치여부": "",
      "공기주입기비치여부": "N",
      "공기주입기유형": "",
      "수리대설치여부": "N",
      "관리기관전화번호": "031-8075-6315",
      "관리기관명": "경기도 고양시 일산동구청",
      "데이터기준일자": "2020-11-26"
    },
    {
      "id": 100,
      "name": "정발산역2번 출구(문화광장)",
      "소재지도로명주소": "경기도 고양시 일산동구 중앙로 1256",
      "소재지지번주소": "경기도 고양시 일산동구 장항동 845",
      "lat": 37.65888174,
      "lon": 126.7749581,
      "보관대수": 40,
      "설치연도": null,
      "설치형태": "거치형",
      "차양막설치여부": "",
      "공기주입기비치여부": "Y",
      "공기주입기유형": "기계식",
      "수리대설치여부": "N",
      "관리기관전화번호": "031-8075-6315",
      "관리기관명": "경기도 고양시 일산동구청",
      "데이터기준일자": "2020-11-26"
    },
    {
      "id": 101,
      "name": "정발산역3번 출구",
      "소재지도로명주소": "경기도 고양시 일산동구 중앙로 지하 1270",
      "소재지지번주소": "경기도 고양시 일산동구 마두동 1121-1",
      "lat": 37.65965732,
      "lon": 126.7734067,
      "보관대수": 50,
      "설치연도": null,
      "설치형태": "거치형",
      "차양막설치여부": "",
      "공기주입기비치여부": "Y",
      "공기주입기유형": "기계식",
      "수리대설치여부": "N",
      "관리기관전화번호": "031-8075-6315",
      "관리기관명": "경기도 고양시 일산동구청",
      "데이터기준일자": "2020-11-26"
    },
    {
      "id": 102,
      "name": "백석역",
      "소재지도로명주소": "경기도 고양시 일산동구 중앙로 1047",
      "소재지지번주소": "경기도 고양시 일산동구 백석동 1233",
      "lat": 37.64310845,
      "lon": 126.7871684,
      "보관대수": 263,
      "설치연도": null,
      "설치형태": "휀스형",
      "차양막설치여부": "",
      "공기주입기비치여부": "Y",
      "공기주입기유형": "기계식",
      "수리대설치여부": "N",
      "관리기관전화번호": "031-8075-6315",
      "관리기관명": "경기도 고양시 일산동구청",
      "데이터기준일자": "2020-11-26"
    },
    {
      "id": 103,
      "name": "마두역",
      "소재지도로명주소": "경기도 고양시 일산동구 중앙로 1182",
      "소재지지번주소": "경기도 고양시 일산동구 마두동 1120",
      "lat": 37.65260969,
      "lon": 126.7781157,
      "보관대수": 289,
      "설치연도": null,
      "설치형태": "휀스형",
      "차양막설치여부": "",
      "공기주입기비치여부": "N",
      "공기주입기유형": "",
      "수리대설치여부": "N",
      "관리기관전화번호": "031-8075-6315",
      "관리기관명": "경기도 고양시 일산동구청",
      "데이터기준일자": "2020-11-26"
    },
    {
      "id": 104,
      "name": "정발산역",
      "소재지도로명주소": "경기도 고양시 일산동구 햇살로 56",
      "소재지지번주소": "경기도 고양시 일산동구 마두동 1121",
      "lat": 37.66489659,
      "lon": 126.7768078,
      "보관대수": 160,
      "설치연도": null,
      "설치형태": "휀스형",
      "차양막설치여부": "",
      "공기주입기비치여부": "N",
      "공기주입기유형": "",
      "수리대설치여부": "N",
      "관리기관전화번호": "031-8075-6315",
      "관리기관명": "경기도 고양시 일산동구청",
      "데이터기준일자": "2020-11-26"
    },
    {
      "id": 105,
      "name": "마두역6번출구",
      "소재지도로명주소": "경기도 고양시 일산동구 중앙로 1182",
      "소재지지번주소": "경기도 고양시 일산동구 마두동 765",
      "lat": 37.65260969,
      "lon": 126.7781157,
      "보관대수": 500,
      "설치연도": null,
      "설치형태": "휀스형",
      "차양막설치여부": "",
      "공기주입기비치여부": "N",
      "공기주입기유형": "",
      "수리대설치여부": "N",
      "관리기관전화번호": "031-8075-6315",
      "관리기관명": "경기도 고양시 일산동구청",
      "데이터기준일자": "2020-11-26"
    },
    {
      "id": 106,
      "name": "낙민공원",
      "소재지도로명주소": "경기도 고양시 일산동구 장백로 197",
      "소재지지번주소": "경기도 고양시 일산동구 장항동 873",
      "lat": 37.65207856,
      "lon": 126.7754999,
      "보관대수": 26,
      "설치연도": null,
      "설치형태": "휀스형",
      "차양막설치여부": "",
      "공기주입기비치여부": "N",
      "공기주입기유형": "",
      "수리대설치여부": "N",
      "관리기관전화번호": "031-8075-6315",
      "관리기관명": "경기도 고양시 일산동구청",
      "데이터기준일자": "2020-11-26"
    },
    {
      "id": 107,
      "name": "문화광장(공원)",
      "소재지도로명주소": "경기도 고양시 일산동구 중앙로 1256",
      "소재지지번주소": "경기도 고양시 일산동구 장항동 845",
      "lat": 37.65888174,
      "lon": 126.7749581,
      "보관대수": 50,
      "설치연도": null,
      "설치형태": "거치형",
      "차양막설치여부": "",
      "공기주입기비치여부": "Y",
      "공기주입기유형": "기계식",
      "수리대설치여부": "N",
      "관리기관전화번호": "031-8075-6315",
      "관리기관명": "경기도 고양시 일산동구청",
      "데이터기준일자": "2020-11-26"
    },
    {
      "id": 108,
      "name": "마두공원",
      "소재지도로명주소": "경기도 고양시 일산동구 강송로 180",
      "소재지지번주소": "경기도 고양시 일산동구 마두동 780",
      "lat": 37.6547944,
      "lon": 126.7838054,
      "보관대수": 77,
      "설치연도": null,
      "설치형태": "거치형",
      "차양막설치여부": "",
      "공기주입기비치여부": "N",
      "공기주입기유형": "",
      "수리대설치여부": "N",
      "관리기관전화번호": "031-8075-6315",
      "관리기관명": "경기도 고양시 일산동구청",
      "데이터기준일자": "2020-11-26"
    },
    {
      "id": 109,
      "name": "마두공원(정발초 옆)",
      "소재지도로명주소": "경기도 고양시 일산동구 강송로 190",
      "소재지지번주소": "경기도 고양시 일산동구 마두동 780",
      "lat": 37.65576999,
      "lon": 126.783757,
      "보관대수": 40,
      "설치연도": null,
      "설치형태": "거치형",
      "차양막설치여부": "",
      "공기주입기비치여부": "Y",
      "공기주입기유형": "기계식",
      "수리대설치여부": "N",
      "관리기관전화번호": "031-8075-6315",
      "관리기관명": "경기도 고양시 일산동구청",
      "데이터기준일자": "2020-11-26"
    },
    {
      "id": 110,
      "name": "백마공원",
      "소재지도로명주소": "경기도 고양시 일산동구 경의로 315",
      "소재지지번주소": "경기도 고양시 일산동구 마두동 725",
      "lat": 37.658011,
      "lon": 126.7931338,
      "보관대수": 26,
      "설치연도": null,
      "설치형태": "휀스형",
      "차양막설치여부": "",
      "공기주입기비치여부": "N",
      "공기주입기유형": "",
      "수리대설치여부": "N",
      "관리기관전화번호": "031-8075-6315",
      "관리기관명": "경기도 고양시 일산동구청",
      "데이터기준일자": "2020-11-26"
    },
    {
      "id": 111,
      "name": "중산공원",
      "소재지도로명주소": "경기도 고양시 일산동구 중산로 217",
      "소재지지번주소": "경기도 고양시 일산동구 중산동 1565",
      "lat": 37.69150284,
      "lon": 126.7798982,
      "보관대수": 42,
      "설치연도": null,
      "설치형태": "거치형",
      "차양막설치여부": "",
      "공기주입기비치여부": "Y",
      "공기주입기유형": "기계식",
      "수리대설치여부": "N",
      "관리기관전화번호": "031-8075-6315",
      "관리기관명": "경기도 고양시 일산동구청",
      "데이터기준일자": "2020-11-26"
    },
    {
      "id": 112,
      "name": "말머리공원",
      "소재지도로명주소": "경기도 고양시 일산동구 강석로 132-1",
      "소재지지번주소": "경기도 고양시 일산동구 마두동 790",
      "lat": 37.6533903,
      "lon": 126.7810761,
      "보관대수": 7,
      "설치연도": null,
      "설치형태": "거치형",
      "차양막설치여부": "",
      "공기주입기비치여부": "N",
      "공기주입기유형": "",
      "수리대설치여부": "N",
      "관리기관전화번호": "031-8075-6315",
      "관리기관명": "경기도 고양시 일산동구청",
      "데이터기준일자": "2020-11-26"
    },
    {
      "id": 113,
      "name": "강촌공원",
      "소재지도로명주소": "경기도 고양시 일산동구 강석로 132-1",
      "소재지지번주소": "경기도 고양시 일산동구 마두동 791",
      "lat": 37.6533903,
      "lon": 126.7810761,
      "보관대수": 98,
      "설치연도": null,
      "설치형태": "거치형",
      "차양막설치여부": "",
      "공기주입기비치여부": "N",
      "공기주입기유형": "",
      "수리대설치여부": "N",
      "관리기관전화번호": "031-8075-6315",
      "관리기관명": "경기도 고양시 일산동구청",
      "데이터기준일자": "2020-11-26"
    },
    {
      "id": 114,
      "name": "정발산공원",
      "소재지도로명주소": "경기도 고양시 일산동구 중앙로 1286",
      "소재지지번주소": "경기도 고양시 일산동구 마두동 1121",
      "lat": 37.66148641,
      "lon": 126.7744561,
      "보관대수": 196,
      "설치연도": null,
      "설치형태": "거치형",
      "차양막설치여부": "",
      "공기주입기비치여부": "N",
      "공기주입기유형": "",
      "수리대설치여부": "N",
      "관리기관전화번호": "031-8075-6315",
      "관리기관명": "경기도 고양시 일산동구청",
      "데이터기준일자": "2020-11-26"
    },
    {
      "id": 115,
      "name": "호수공원",
      "소재지도로명주소": "경기도 고양시 일산동구 호수로 595",
      "소재지지번주소": "경기도 고양시 일산동구 장항동 906",
      "lat": 37.65384593,
      "lon": 126.7687814,
      "보관대수": 126,
      "설치연도": null,
      "설치형태": "거치형",
      "차양막설치여부": "",
      "공기주입기비치여부": "Y",
      "공기주입기유형": "기계식",
      "수리대설치여부": "N",
      "관리기관전화번호": "031-8075-6315",
      "관리기관명": "경기도 고양시 일산동구청",
      "데이터기준일자": "2020-11-26"
    },
    {
      "id": 116,
      "name": "웨스턴돔",
      "소재지도로명주소": "경기도 고양시 일산동구 정발산로 24",
      "소재지지번주소": "경기도 고양시 일산동구 장항동 867",
      "lat": 37.65589569,
      "lon": 126.7720388,
      "보관대수": 20,
      "설치연도": null,
      "설치형태": "거치형",
      "차양막설치여부": "",
      "공기주입기비치여부": "N",
      "공기주입기유형": "",
      "수리대설치여부": "N",
      "관리기관전화번호": "031-8075-6315",
      "관리기관명": "경기도 고양시 일산동구청",
      "데이터기준일자": "2020-11-26"
    },
    {
      "id": 117,
      "name": "웨스턴돔",
      "소재지도로명주소": "경기도 고양시 일산동구 정발산로 24",
      "소재지지번주소": "경기도 고양시 일산동구 장항동 868",
      "lat": 37.65589569,
      "lon": 126.7720388,
      "보관대수": 20,
      "설치연도": null,
      "설치형태": "거치형",
      "차양막설치여부": "",
      "공기주입기비치여부": "N",
      "공기주입기유형": "",
      "수리대설치여부": "N",
      "관리기관전화번호": "031-8075-6315",
      "관리기관명": "경기도 고양시 일산동구청",
      "데이터기준일자": "2020-11-26"
    },
    {
      "id": 118,
      "name": "마두동 729",
      "소재지도로명주소": "경기도 고양시 일산동구 일산로 208",
      "소재지지번주소": "경기도 고양시 일산동구 마두동 729",
      "lat": 37.6549071,
      "lon": 126.7901503,
      "보관대수": 40,
      "설치연도": null,
      "설치형태": "휀스형",
      "차양막설치여부": "",
      "공기주입기비치여부": "N",
      "공기주입기유형": "",
      "수리대설치여부": "N",
      "관리기관전화번호": "031-8075-6315",
      "관리기관명": "경기도 고양시 일산동구청",
      "데이터기준일자": "2020-11-26"
    },
    {
      "id": 119,
      "name": "마두동 736",
      "소재지도로명주소": "경기도 고양시 일산동구 일산로 203",
      "소재지지번주소": "경기도 고양시 일산동구 마두동 736",
      "lat": 37.654347,
      "lon": 126.7896619,
      "보관대수": 30,
      "설치연도": null,
      "설치형태": "휀스형",
      "차양막설치여부": "",
      "공기주입기비치여부": "N",
      "공기주입기유형": "",
      "수리대설치여부": "N",
      "관리기관전화번호": "031-8075-6315",
      "관리기관명": "경기도 고양시 일산동구청",
      "데이터기준일자": "2020-11-26"
    },
    {
      "id": 120,
      "name": "한주프라자 앞",
      "소재지도로명주소": "경기도 고양시 일산동구 강송로 169",
      "소재지지번주소": "경기도 고양시 일산동구 마두동 785-1",
      "lat": 37.6537486,
      "lon": 126.7836019,
      "보관대수": 5,
      "설치연도": null,
      "설치형태": "휀스형",
      "차양막설치여부": "",
      "공기주입기비치여부": "N",
      "공기주입기유형": "",
      "수리대설치여부": "N",
      "관리기관전화번호": "031-8075-6315",
      "관리기관명": "경기도 고양시 일산동구청",
      "데이터기준일자": "2020-11-26"
    },
    {
      "id": 121,
      "name": "학원가",
      "소재지도로명주소": "경기도 고양시 일산동구 일산로 219",
      "소재지지번주소": "경기도 고양시 일산동구 마두동 738",
      "lat": 37.65572521,
      "lon": 126.7888493,
      "보관대수": 80,
      "설치연도": null,
      "설치형태": "휀스형",
      "차양막설치여부": "",
      "공기주입기비치여부": "Y",
      "공기주입기유형": "수동식",
      "수리대설치여부": "N",
      "관리기관전화번호": "031-8075-6315",
      "관리기관명": "경기도 고양시 일산동구청",
      "데이터기준일자": "2020-11-26"
    },
    {
      "id": 122,
      "name": "올림픽스포츠센터 옆",
      "소재지도로명주소": "경기도 고양시 일산동구 중앙로 1182",
      "소재지지번주소": "경기도 고양시 일산동구 마두동 801-1",
      "lat": 37.65260969,
      "lon": 126.7781157,
      "보관대수": 10,
      "설치연도": null,
      "설치형태": "휀스형",
      "차양막설치여부": "",
      "공기주입기비치여부": "N",
      "공기주입기유형": "",
      "수리대설치여부": "N",
      "관리기관전화번호": "031-8075-6315",
      "관리기관명": "경기도 고양시 일산동구청",
      "데이터기준일자": "2020-11-26"
    },
    {
      "id": 123,
      "name": "풍동 1280-1번지",
      "소재지도로명주소": "경기도 고양시 일산동구 숲속마을로 44",
      "소재지지번주소": "경기도 고양시 일산동구 풍동 1280-1",
      "lat": 37.66741112,
      "lon": 126.798245,
      "보관대수": 20,
      "설치연도": null,
      "설치형태": "휀스형",
      "차양막설치여부": "",
      "공기주입기비치여부": "N",
      "공기주입기유형": "",
      "수리대설치여부": "N",
      "관리기관전화번호": "031-8075-6315",
      "관리기관명": "경기도 고양시 일산동구청",
      "데이터기준일자": "2020-11-26"
    },
    {
      "id": 124,
      "name": "정발산동 1145-2번지",
      "소재지도로명주소": "경기도 고양시 일산동구 일산로 457",
      "소재지지번주소": "경기도 고양시 일산동구 정발산동 1145-2",
      "lat": 37.67381485,
      "lon": 126.7760406,
      "보관대수": 30,
      "설치연도": null,
      "설치형태": "휀스형",
      "차양막설치여부": "",
      "공기주입기비치여부": "N",
      "공기주입기유형": "",
      "수리대설치여부": "N",
      "관리기관전화번호": "031-8075-6315",
      "관리기관명": "경기도 고양시 일산동구청",
      "데이터기준일자": "2020-11-26"
    },
    {
      "id": 125,
      "name": "일산로 441(일성조합상가)",
      "소재지도로명주소": "경기도 고양시 일산동구 일산로 441",
      "소재지지번주소": "경기도 고양시 일산동구 정발산동 1204",
      "lat": 37.6730463,
      "lon": 126.7776747,
      "보관대수": 10,
      "설치연도": null,
      "설치형태": "휀스형",
      "차양막설치여부": "",
      "공기주입기비치여부": "N",
      "공기주입기유형": "",
      "수리대설치여부": "N",
      "관리기관전화번호": "031-8075-6315",
      "관리기관명": "경기도 고양시 일산동구청",
      "데이터기준일자": "2020-11-26"
    },
    {
      "id": 126,
      "name": "라페스타",
      "소재지도로명주소": "경기도 고양시 일산동구 중앙로 1275번길 38-31",
      "소재지지번주소": "경기도 고양시 일산동구 장항동 766-3",
      "lat": 37.66047872,
      "lon": 126.7695904,
      "보관대수": 65,
      "설치연도": null,
      "설치형태": "거치형",
      "차양막설치여부": "",
      "공기주입기비치여부": "N",
      "공기주입기유형": "",
      "수리대설치여부": "N",
      "관리기관전화번호": "031-8075-6315",
      "관리기관명": "경기도 고양시 일산동구청",
      "데이터기준일자": "2020-11-26"
    },
    {
      "id": 127,
      "name": "중산동1813 일산조은프라자 앞",
      "소재지도로명주소": "경기도 고양시 일산동구 하늘마을1로 14",
      "소재지지번주소": "경기도 고양시 일산동구 중산동 1813",
      "lat": 37.67501372,
      "lon": 126.787055,
      "보관대수": 10,
      "설치연도": null,
      "설치형태": "거치형",
      "차양막설치여부": "",
      "공기주입기비치여부": "N",
      "공기주입기유형": "",
      "수리대설치여부": "N",
      "관리기관전화번호": "031-8075-6315",
      "관리기관명": "경기도 고양시 일산동구청",
      "데이터기준일자": "2020-11-26"
    },
    {
      "id": 128,
      "name": "식사동 위시티 육교 밑",
      "소재지도로명주소": "경기도 고양시 일산동구 위시티로 51",
      "소재지지번주소": "경기도 고양시 일산동구 식사동 665-18",
      "lat": 37.67695934,
      "lon": 126.8099854,
      "보관대수": 10,
      "설치연도": null,
      "설치형태": "휀스형",
      "차양막설치여부": "",
      "공기주입기비치여부": "N",
      "공기주입기유형": "",
      "수리대설치여부": "N",
      "관리기관전화번호": "031-8075-6315",
      "관리기관명": "경기도 고양시 일산동구청",
      "데이터기준일자": "2020-11-26"
    },
    {
      "id": 129,
      "name": "마두동 730 동신상가 앞",
      "소재지도로명주소": "경기도 고양시 일산동구 일산로 204",
      "소재지지번주소": "경기도 고양시 일산동구 마두동 730",
      "lat": 37.65463586,
      "lon": 126.790391,
      "보관대수": 5,
      "설치연도": null,
      "설치형태": "휀스형",
      "차양막설치여부": "",
      "공기주입기비치여부": "N",
      "공기주입기유형": "",
      "수리대설치여부": "N",
      "관리기관전화번호": "031-8075-6315",
      "관리기관명": "경기도 고양시 일산동구청",
      "데이터기준일자": "2020-11-26"
    },
    {
      "id": 130,
      "name": "풍동중학교옆",
      "소재지도로명주소": "경기도 고양시 일산동구 숲속마을1로 101",
      "소재지지번주소": "경기도 고양시 일산동구 풍동 1323",
      "lat": 37.67082995,
      "lon": 126.7996229,
      "보관대수": 56,
      "설치연도": null,
      "설치형태": "거치형",
      "차양막설치여부": "",
      "공기주입기비치여부": "N",
      "공기주입기유형": "",
      "수리대설치여부": "N",
      "관리기관전화번호": "031-8075-6315",
      "관리기관명": "경기도 고양시 일산동구청",
      "데이터기준일자": "2020-11-26"
    },
    {
      "id": 131,
      "name": "종합운동장 주출입구 주변",
      "소재지도로명주소": "경기도 고양시 일산서구 중앙로 1601",
      "소재지지번주소": "경기도 고양시 일산서구 대화동 2320",
      "lat": 37.6764217,
      "lon": 126.7430656,
      "보관대수": 150,
      "설치연도": 1995,
      "설치형태": "휀스형",
      "차양막설치여부": "",
      "공기주입기비치여부": "N",
      "공기주입기유형": "",
      "수리대설치여부": "N",
      "관리기관전화번호": "031-8075-7305",
      "관리기관명": "경기도 고양시 일산서구청",
      "데이터기준일자": "2020-11-26"
    },
    {
      "id": 132,
      "name": "일산3동주민센터",
      "소재지도로명주소": "경기도 고양시 일산서구 강선로 158",
      "소재지지번주소": "경기도 고양시 일산서구 일산동 1100",
      "lat": 37.6769751,
      "lon": 126.770237,
      "보관대수": 14,
      "설치연도": 1995,
      "설치형태": "휀스형",
      "차양막설치여부": "",
      "공기주입기비치여부": "Y",
      "공기주입기유형": "수동식",
      "수리대설치여부": "N",
      "관리기관전화번호": "031-8075-7305",
      "관리기관명": "경기도 고양시 일산서구청",
      "데이터기준일자": "2020-11-26"
    },
    {
      "id": 133,
      "name": "일산서구청 후문",
      "소재지도로명주소": "경기도 고양시 일산서구 중앙로 1542",
      "소재지지번주소": "경기도 고양시 일산서구 대화동 2199",
      "lat": 37.67531357,
      "lon": 126.750632,
      "보관대수": 14,
      "설치연도": 2005,
      "설치형태": "휀스형",
      "차양막설치여부": "",
      "공기주입기비치여부": "Y",
      "공기주입기유형": "수동식",
      "수리대설치여부": "N",
      "관리기관전화번호": "031-8075-7305",
      "관리기관명": "경기도 고양시 일산서구청",
      "데이터기준일자": "2020-11-26"
    },
    {
      "id": 134,
      "name": "대화우체국 입구",
      "소재지도로명주소": "경기도 고양시 일산서구 일산로 664",
      "소재지지번주소": "경기도 고양시 일산서구 대화동 2034",
      "lat": 37.68300729,
      "lon": 126.755509,
      "보관대수": 31,
      "설치연도": 1999,
      "설치형태": "휀스형",
      "차양막설치여부": "",
      "공기주입기비치여부": "Y",
      "공기주입기유형": "수동식",
      "수리대설치여부": "N",
      "관리기관전화번호": "031-8075-7305",
      "관리기관명": "경기도 고양시 일산서구청",
      "데이터기준일자": "2020-11-26"
    },
    {
      "id": 135,
      "name": "탄현주민센터",
      "소재지도로명주소": "경기도 고양시 일산서구 홀트로 36",
      "소재지지번주소": "경기도 고양시 일산서구 탄현동 1488-3",
      "lat": 37.69431711,
      "lon": 126.7684109,
      "보관대수": 20,
      "설치연도": 2005,
      "설치형태": "휀스형",
      "차양막설치여부": "",
      "공기주입기비치여부": "Y",
      "공기주입기유형": "수동식",
      "수리대설치여부": "N",
      "관리기관전화번호": "031-8075-7305",
      "관리기관명": "경기도 고양시 일산서구청",
      "데이터기준일자": "2020-11-26"
    },
    {
      "id": 136,
      "name": "대화역 2번출입구 주변",
      "소재지도로명주소": "경기도 고양시 일산서구 중앙로 지하 1569",
      "소재지지번주소": "경기도 고양시 일산서구 대화동 2221-1",
      "lat": 37.67595514,
      "lon": 126.7473067,
      "보관대수": 89,
      "설치연도": 1995,
      "설치형태": "휀스형",
      "차양막설치여부": "",
      "공기주입기비치여부": "Y",
      "공기주입기유형": "수동식",
      "수리대설치여부": "N",
      "관리기관전화번호": "031-8075-7305",
      "관리기관명": "경기도 고양시 일산서구청",
      "데이터기준일자": "2020-11-26"
    },
    {
      "id": 137,
      "name": "대화역 5번출입구 주변",
      "소재지도로명주소": "경기도 고양시 일산서구 중앙로 1559-23",
      "소재지지번주소": "경기도 고양시 일산서구 대화동 2204",
      "lat": 37.67538233,
      "lon": 126.7474038,
      "보관대수": 150,
      "설치연도": 1998,
      "설치형태": "휀스형",
      "차양막설치여부": "",
      "공기주입기비치여부": "Y",
      "공기주입기유형": "수동식",
      "수리대설치여부": "N",
      "관리기관전화번호": "031-8075-7305",
      "관리기관명": "경기도 고양시 일산서구청",
      "데이터기준일자": "2020-11-26"
    },
    {
      "id": 138,
      "name": "주엽역 6,7번출입구 주변",
      "소재지도로명주소": "경기도 고양시 일산서구 중앙로 지하1431",
      "소재지지번주소": "경기도 고양시 일산서구 주엽동 79",
      "lat": 37.67012058,
      "lon": 126.7612273,
      "보관대수": 320,
      "설치연도": 1996,
      "설치형태": "휀스형",
      "차양막설치여부": "",
      "공기주입기비치여부": "Y",
      "공기주입기유형": "수동식",
      "수리대설치여부": "N",
      "관리기관전화번호": "031-8075-7305",
      "관리기관명": "경기도 고양시 일산서구청",
      "데이터기준일자": "2020-11-26"
    },
    {
      "id": 139,
      "name": "주엽역 2,3번출입구 주변",
      "소재지도로명주소": "경기도 고양시 일산서구 중앙로 지하1431",
      "소재지지번주소": "경기도 고양시 일산서구 주엽동 108",
      "lat": 37.67012058,
      "lon": 126.7612273,
      "보관대수": 151,
      "설치연도": 1996,
      "설치형태": "휀스형",
      "차양막설치여부": "",
      "공기주입기비치여부": "Y",
      "공기주입기유형": "수동식",
      "수리대설치여부": "N",
      "관리기관전화번호": "031-8075-7305",
      "관리기관명": "경기도 고양시 일산서구청",
      "데이터기준일자": "2020-11-26"
    },
    {
      "id": 140,
      "name": "일산역 1번출입구 주변",
      "소재지도로명주소": "경기도 고양시 일산서구 경의로 672",
      "소재지지번주소": "경기도 고양시 일산서구 일산동 1410",
      "lat": 37.68214162,
      "lon": 126.7694781,
      "보관대수": 120,
      "설치연도": 1997,
      "설치형태": "휀스형",
      "차양막설치여부": "",
      "공기주입기비치여부": "Y",
      "공기주입기유형": "수동식",
      "수리대설치여부": "N",
      "관리기관전화번호": "031-8075-7305",
      "관리기관명": "경기도 고양시 일산서구청",
      "데이터기준일자": "2020-11-26"
    },
    {
      "id": 141,
      "name": "일산역 2번출입구 주변",
      "소재지도로명주소": "경기도 고양시 일산서구 경의로 672",
      "소재지지번주소": "경기도 고양시 일산서구 일산동 655-691",
      "lat": 37.68214162,
      "lon": 126.769432,
      "보관대수": 100,
      "설치연도": 1995,
      "설치형태": "휀스형",
      "차양막설치여부": "",
      "공기주입기비치여부": "Y",
      "공기주입기유형": "수동식",
      "수리대설치여부": "N",
      "관리기관전화번호": "031-8075-7305",
      "관리기관명": "경기도 고양시 일산서구청",
      "데이터기준일자": "2020-11-26"
    },
    {
      "id": 142,
      "name": "경일빌딩 주변",
      "소재지도로명주소": "경기도 고양시 일산서구 일산로 574",
      "소재지지번주소": "경기도 고양시 일산서구 일산동 1065-4",
      "lat": 37.679328,
      "lon": 126.7647705,
      "보관대수": 64,
      "설치연도": 2002,
      "설치형태": "휀스형",
      "차양막설치여부": "",
      "공기주입기비치여부": "N",
      "공기주입기유형": "",
      "수리대설치여부": "N",
      "관리기관전화번호": "031-8075-7305",
      "관리기관명": "경기도 고양시 일산서구청",
      "데이터기준일자": "2020-11-26"
    },
    {
      "id": 143,
      "name": "국민은행주엽점 주변",
      "소재지도로명주소": "경기도 고양시 일산서구 중앙로 1450",
      "소재지지번주소": "경기도 고양시 일산서구 주엽동 21",
      "lat": 37.67125249,
      "lon": 126.759578,
      "보관대수": 21,
      "설치연도": 2000,
      "설치형태": "휀스형",
      "차양막설치여부": "",
      "공기주입기비치여부": "N",
      "공기주입기유형": "",
      "수리대설치여부": "N",
      "관리기관전화번호": "031-8075-7305",
      "관리기관명": "경기도 고양시 일산서구청",
      "데이터기준일자": "2020-11-26"
    },
    {
      "id": 144,
      "name": "농협주엽점 주변",
      "소재지도로명주소": "경기도 고양시 일산서구 중앙로 1421",
      "소재지지번주소": "경기도 고양시 일산서구 주엽동 106",
      "lat": 37.66944102,
      "lon": 126.7620048,
      "보관대수": 21,
      "설치연도": 2000,
      "설치형태": "휀스형",
      "차양막설치여부": "",
      "공기주입기비치여부": "N",
      "공기주입기유형": "",
      "수리대설치여부": "N",
      "관리기관전화번호": "031-8075-7305",
      "관리기관명": "경기도 고양시 일산서구청",
      "데이터기준일자": "2020-11-26"
    },
    {
      "id": 145,
      "name": "롯데마트주엽점 주변",
      "소재지도로명주소": "경기도 고양시 일산서구 중앙로 1496",
      "소재지지번주소": "경기도 고양시 일산서구 주엽동 15",
      "lat": 37.67318966,
      "lon": 126.7552416,
      "보관대수": 70,
      "설치연도": 2000,
      "설치형태": "휀스형",
      "차양막설치여부": "",
      "공기주입기비치여부": "N",
      "공기주입기유형": "",
      "수리대설치여부": "N",
      "관리기관전화번호": "031-8075-7305",
      "관리기관명": "경기도 고양시 일산서구청",
      "데이터기준일자": "2020-11-26"
    },
    {
      "id": 146,
      "name": "서현프라자 주변",
      "소재지도로명주소": "경기도 고양시 일산서구 중앙로 1456",
      "소재지지번주소": "경기도 고양시 일산서구 주엽동 18-2",
      "lat": 37.671509,
      "lon": 126.758973,
      "보관대수": 45,
      "설치연도": 2002,
      "설치형태": "휀스형",
      "차양막설치여부": "",
      "공기주입기비치여부": "N",
      "공기주입기유형": "",
      "수리대설치여부": "N",
      "관리기관전화번호": "031-8075-7305",
      "관리기관명": "경기도 고양시 일산서구청",
      "데이터기준일자": "2020-11-26"
    },
    {
      "id": 147,
      "name": "우신프라자 주변",
      "소재지도로명주소": "경기도 고양시 일산서구 주화로 70",
      "소재지지번주소": "경기도 고양시 일산서구 주엽동 109-1",
      "lat": 37.669706,
      "lon": 126.760271,
      "보관대수": 20,
      "설치연도": 1999,
      "설치형태": "휀스형",
      "차양막설치여부": "",
      "공기주입기비치여부": "N",
      "공기주입기유형": "",
      "수리대설치여부": "N",
      "관리기관전화번호": "031-8075-7305",
      "관리기관명": "경기도 고양시 일산서구청",
      "데이터기준일자": "2020-11-26"
    },
    {
      "id": 148,
      "name": "두레빌딩 주변",
      "소재지도로명주소": "경기도 고양시 일산서구 강선로 152",
      "소재지지번주소": "경기도 고양시 일산서구 일산동 1088",
      "lat": 37.676424,
      "lon": 126.769835,
      "보관대수": 40,
      "설치연도": 1995,
      "설치형태": "휀스형",
      "차양막설치여부": "",
      "공기주입기비치여부": "N",
      "공기주입기유형": "",
      "수리대설치여부": "N",
      "관리기관전화번호": "031-8075-7305",
      "관리기관명": "경기도 고양시 일산서구청",
      "데이터기준일자": "2020-11-26"
    },
    {
      "id": 149,
      "name": "주엽고 후문 주변",
      "소재지도로명주소": "경기도 고양시 일산서구 킨텍스로 341",
      "소재지지번주소": "경기도 고양시 일산서구 대화동 2168",
      "lat": 37.67610338,
      "lon": 126.7543569,
      "보관대수": 195,
      "설치연도": 2011,
      "설치형태": "휀스형",
      "차양막설치여부": "",
      "공기주입기비치여부": "Y",
      "공기주입기유형": "수동식",
      "수리대설치여부": "N",
      "관리기관전화번호": "031-8075-7305",
      "관리기관명": "경기도 고양시 일산서구청",
      "데이터기준일자": "2020-11-26"
    },
    {
      "id": 150,
      "name": "한수중 입구 주변",
      "소재지도로명주소": "경기도 고양시 일산서구 주엽로 118",
      "소재지지번주소": "경기도 고양시 일산서구 주엽동 116",
      "lat": 37.66933828,
      "lon": 126.757571,
      "보관대수": 100,
      "설치연도": 2003,
      "설치형태": "휀스형",
      "차양막설치여부": "",
      "공기주입기비치여부": "N",
      "공기주입기유형": "",
      "수리대설치여부": "N",
      "관리기관전화번호": "031-8075-7305",
      "관리기관명": "경기도 고양시 일산서구청",
      "데이터기준일자": "2020-11-26"
    },
    {
      "id": 151,
      "name": "오마중 입구 주변",
      "소재지도로명주소": "경기도 고양시 일산서구 주엽로 213",
      "소재지지번주소": "경기도 고양시 일산서구 주엽동 4",
      "lat": 37.6776966,
      "lon": 126.7615205,
      "보관대수": 100,
      "설치연도": 2006,
      "설치형태": "휀스형",
      "차양막설치여부": "",
      "공기주입기비치여부": "N",
      "공기주입기유형": "",
      "수리대설치여부": "N",
      "관리기관전화번호": "031-8075-7305",
      "관리기관명": "경기도 고양시 일산서구청",
      "데이터기준일자": "2020-11-26"
    },
    {
      "id": 152,
      "name": "발산중 입구 주변",
      "소재지도로명주소": "경기도 고양시 일산서구 고봉로 99",
      "소재지지번주소": "경기도 고양시 일산서구 주엽동 56",
      "lat": 37.6698293,
      "lon": 126.769625,
      "보관대수": 45,
      "설치연도": 2000,
      "설치형태": "휀스형",
      "차양막설치여부": "",
      "공기주입기비치여부": "N",
      "공기주입기유형": "",
      "수리대설치여부": "N",
      "관리기관전화번호": "031-8075-7305",
      "관리기관명": "경기도 고양시 일산서구청",
      "데이터기준일자": "2020-11-26"
    },
    {
      "id": 153,
      "name": "대화중 후문 주변",
      "소재지도로명주소": "경기도 고양시 일산서구 고양대로 348",
      "소재지지번주소": "경기도 고양시 일산서구 대화동 2230",
      "lat": 37.6738061,
      "lon": 126.7444755,
      "보관대수": 268,
      "설치연도": 2002,
      "설치형태": "휀스형",
      "차양막설치여부": "",
      "공기주입기비치여부": "N",
      "공기주입기유형": "",
      "수리대설치여부": "N",
      "관리기관전화번호": "031-8075-7305",
      "관리기관명": "경기도 고양시 일산서구청",
      "데이터기준일자": "2020-11-26"
    },
    {
      "id": 154,
      "name": "장성초 후문 주변",
      "소재지도로명주소": "경기도 고양시 일산서구 일산로 738",
      "소재지지번주소": "경기도 고양시 일산서구 대화동 2210",
      "lat": 37.67794952,
      "lon": 126.7496623,
      "보관대수": 98,
      "설치연도": 2003,
      "설치형태": "휀스형",
      "차양막설치여부": "",
      "공기주입기비치여부": "N",
      "공기주입기유형": "",
      "수리대설치여부": "N",
      "관리기관전화번호": "031-8075-7305",
      "관리기관명": "경기도 고양시 일산서구청",
      "데이터기준일자": "2020-11-26"
    },
    {
      "id": 155,
      "name": "장성중 후문 주변",
      "소재지도로명주소": "경기도 고양시 일산서구 대산로 254",
      "소재지지번주소": "경기도 고양시 일산서구 대화동 2096",
      "lat": 37.68131919,
      "lon": 126.7513741,
      "보관대수": 189,
      "설치연도": 2003,
      "설치형태": "휀스형",
      "차양막설치여부": "",
      "공기주입기비치여부": "Y",
      "공기주입기유형": "수동식",
      "수리대설치여부": "N",
      "관리기관전화번호": "031-8075-7305",
      "관리기관명": "경기도 고양시 일산서구청",
      "데이터기준일자": "2020-11-26"
    },
    {
      "id": 156,
      "name": "행신역",
      "소재지도로명주소": "경기도 고양시 덕양구 소원로 102",
      "소재지지번주소": "경기도 고양시 덕양구 행신동 802",
      "lat": 37.61213228,
      "lon": 126.8341886,
      "보관대수": 153,
      "설치연도": null,
      "설치형태": "휀스형",
      "차양막설치여부": "",
      "공기주입기비치여부": "N",
      "공기주입기유형": "",
      "수리대설치여부": "N",
      "관리기관전화번호": "031-8075-5314",
      "관리기관명": "경기도 고양시 덕양구청",
      "데이터기준일자": "2020-11-26"
    },
    {
      "id": 157,
      "name": "가람사거리",
      "소재지도로명주소": "경기도 고양시 덕양구 중앙로 462",
      "소재지지번주소": "경기도 고양시 덕양구 행신동 181-3",
      "lat": 37.618863,
      "lon": 126.844008,
      "보관대수": 10,
      "설치연도": null,
      "설치형태": "휀스형",
      "차양막설치여부": "",
      "공기주입기비치여부": "N",
      "공기주입기유형": "",
      "수리대설치여부": "N",
      "관리기관전화번호": "031-8075-5314",
      "관리기관명": "경기도 고양시 덕양구청",
      "데이터기준일자": "2020-11-26"
    },
    {
      "id": 158,
      "name": "행주산성",
      "소재지도로명주소": "경기도 고양시 덕양구 행주로15번길 89",
      "소재지지번주소": "경기도 고양시 덕양구 행주내동 148-3",
      "lat": 37.59564085,
      "lon": 126.8268514,
      "보관대수": 3,
      "설치연도": null,
      "설치형태": "휀스형",
      "차양막설치여부": "",
      "공기주입기비치여부": "N",
      "공기주입기유형": "",
      "수리대설치여부": "N",
      "관리기관전화번호": "031-8075-5314",
      "관리기관명": "경기도 고양시 덕양구청",
      "데이터기준일자": "2020-11-26"
    },
    {
      "id": 159,
      "name": "행주동 15통 경로당(행주내동 451-5)",
      "소재지도로명주소": "경기도 고양시 덕양구 행주로99번길 46-24",
      "소재지지번주소": "경기도 고양시 덕양구 행주내동 451-5",
      "lat": 37.60752225,
      "lon": 126.821433,
      "보관대수": 1,
      "설치연도": null,
      "설치형태": "휀스형",
      "차양막설치여부": "",
      "공기주입기비치여부": "N",
      "공기주입기유형": "",
      "수리대설치여부": "N",
      "관리기관전화번호": "031-8075-5314",
      "관리기관명": "경기도 고양시 덕양구청",
      "데이터기준일자": "2020-11-26"
    },
    {
      "id": 160,
      "name": "대덕동 난점마을 앞",
      "소재지도로명주소": "경기도 고양시 덕양구 대덕로200번길 92",
      "소재지지번주소": "경기도 고양시 덕양구 현천동 414-6",
      "lat": 37.5924221,
      "lon": 126.856046,
      "보관대수": 0,
      "설치연도": null,
      "설치형태": "휀스형",
      "차양막설치여부": "",
      "공기주입기비치여부": "N",
      "공기주입기유형": "",
      "수리대설치여부": "N",
      "관리기관전화번호": "031-8075-5314",
      "관리기관명": "경기도 고양시 덕양구청",
      "데이터기준일자": "2020-11-26"
    },
    {
      "id": 161,
      "name": "화전동 주민센터",
      "소재지도로명주소": "경기도 고양시 덕양구 중앙로 131",
      "소재지지번주소": "경기도 고양시 덕양구 화전동 226-13",
      "lat": 37.60003831,
      "lon": 126.872617,
      "보관대수": 5,
      "설치연도": null,
      "설치형태": "휀스형",
      "차양막설치여부": "",
      "공기주입기비치여부": "N",
      "공기주입기유형": "",
      "수리대설치여부": "N",
      "관리기관전화번호": "031-8075-5314",
      "관리기관명": "경기도 고양시 덕양구청",
      "데이터기준일자": "2020-11-26"
    },
    {
      "id": 162,
      "name": "화정동 옥빛마을 12단지 앞",
      "소재지도로명주소": "경기도 고양시 덕양구 백양로 84",
      "소재지지번주소": "경기도 고양시 덕양구 화정동 988",
      "lat": 37.633268,
      "lon": 126.8346809,
      "보관대수": 4,
      "설치연도": null,
      "설치형태": "휀스형",
      "차양막설치여부": "",
      "공기주입기비치여부": "N",
      "공기주입기유형": "",
      "수리대설치여부": "N",
      "관리기관전화번호": "031-8075-5314",
      "관리기관명": "경기도 고양시 덕양구청",
      "데이터기준일자": "2020-11-26"
    },
    {
      "id": 163,
      "name": "화정고 앞 보도",
      "소재지도로명주소": "경기도 고양시 덕양구 화정로 17",
      "소재지지번주소": "경기도 고양시 덕양구 화정동 938",
      "lat": 37.6362187,
      "lon": 126.827505,
      "보관대수": 56,
      "설치연도": null,
      "설치형태": "휀스형",
      "차양막설치여부": "",
      "공기주입기비치여부": "N",
      "공기주입기유형": "",
      "수리대설치여부": "N",
      "관리기관전화번호": "031-8075-5314",
      "관리기관명": "경기도 고양시 덕양구청",
      "데이터기준일자": "2020-11-26"
    },
    {
      "id": 164,
      "name": "은빛 5단지 앞",
      "소재지도로명주소": "경기도 고양시 덕양구 화중로 164",
      "소재지지번주소": "경기도 고양시 덕양구 화정동 870",
      "lat": 37.64169547,
      "lon": 126.8342226,
      "보관대수": 3,
      "설치연도": null,
      "설치형태": "휀스형",
      "차양막설치여부": "",
      "공기주입기비치여부": "N",
      "공기주입기유형": "",
      "수리대설치여부": "N",
      "관리기관전화번호": "031-8075-5314",
      "관리기관명": "경기도 고양시 덕양구청",
      "데이터기준일자": "2020-11-26"
    },
    {
      "id": 165,
      "name": "화정17 어린이공원(화정동 954)",
      "소재지도로명주소": "경기도 고양시 덕양구 화중로61",
      "소재지지번주소": "경기도 고양시 덕양구 화정동 954",
      "lat": 37.63290261,
      "lon": 126.8296879,
      "보관대수": 5,
      "설치연도": null,
      "설치형태": "휀스형",
      "차양막설치여부": "",
      "공기주입기비치여부": "N",
      "공기주입기유형": "",
      "수리대설치여부": "N",
      "관리기관전화번호": "031-8075-5314",
      "관리기관명": "경기도 고양시 덕양구청",
      "데이터기준일자": "2020-11-26"
    },
    {
      "id": 166,
      "name": "꽃우물공원",
      "소재지도로명주소": "경기도 고양시 덕양구 중앙로646",
      "소재지지번주소": "경기도 고양시 덕양구 화정동 950",
      "lat": 37.62865718,
      "lon": 126.8272144,
      "보관대수": 2,
      "설치연도": null,
      "설치형태": "휀스형",
      "차양막설치여부": "",
      "공기주입기비치여부": "Y",
      "공기주입기유형": "기계식",
      "수리대설치여부": "N",
      "관리기관전화번호": "031-8075-5314",
      "관리기관명": "경기도 고양시 덕양구청",
      "데이터기준일자": "2020-11-26"
    },
    {
      "id": 167,
      "name": "롯데마트 주차장입구 피프틴옆",
      "소재지도로명주소": "경기도 고양시 덕양구 화중로 66",
      "소재지지번주소": "경기도 고양시 덕양구 화정동 982",
      "lat": 37.632907,
      "lon": 126.831108,
      "보관대수": 3,
      "설치연도": null,
      "설치형태": "휀스형",
      "차양막설치여부": "",
      "공기주입기비치여부": "Y",
      "공기주입기유형": "기계식",
      "수리대설치여부": "N",
      "관리기관전화번호": "031-8075-5314",
      "관리기관명": "경기도 고양시 덕양구청",
      "데이터기준일자": "2020-11-26"
    },
    {
      "id": 168,
      "name": "홀인원프라자 앞(화정동 970-2)",
      "소재지도로명주소": "경기도 고양시 덕양구 화중로 72",
      "소재지지번주소": "경기도 고양시 덕양구 화정동 970-2",
      "lat": 37.63363618,
      "lon": 126.831041,
      "보관대수": 5,
      "설치연도": null,
      "설치형태": "휀스형",
      "차양막설치여부": "",
      "공기주입기비치여부": "N",
      "공기주입기유형": "",
      "수리대설치여부": "N",
      "관리기관전화번호": "031-8075-5314",
      "관리기관명": "경기도 고양시 덕양구청",
      "데이터기준일자": "2020-11-26"
    },
    {
      "id": 169,
      "name": "화정1동 주민센터",
      "소재지도로명주소": "경기도 고양시 덕양구 화중로 197",
      "소재지지번주소": "경기도 고양시 덕양구 화정동 864",
      "lat": 37.644638,
      "lon": 126.833455,
      "보관대수": 2,
      "설치연도": null,
      "설치형태": "휀스형",
      "차양막설치여부": "",
      "공기주입기비치여부": "N",
      "공기주입기유형": "",
      "수리대설치여부": "N",
      "관리기관전화번호": "031-8075-5314",
      "관리기관명": "경기도 고양시 덕양구청",
      "데이터기준일자": "2020-11-26"
    },
    {
      "id": 170,
      "name": "화정2동 주민센터",
      "소재지도로명주소": "경기도 고양시 덕양구 화신로 232",
      "소재지지번주소": "경기도 고양시 덕양구 화정동 994",
      "lat": 37.630534,
      "lon": 126.835786,
      "보관대수": 3,
      "설치연도": null,
      "설치형태": "휀스형",
      "차양막설치여부": "",
      "공기주입기비치여부": "N",
      "공기주입기유형": "",
      "수리대설치여부": "N",
      "관리기관전화번호": "031-8075-5314",
      "관리기관명": "경기도 고양시 덕양구청",
      "데이터기준일자": "2020-11-26"
    },
    {
      "id": 171,
      "name": "달빛공원",
      "소재지도로명주소": "경기도 고양시 덕양구 화수로25",
      "소재지지번주소": "경기도 고양시 덕양구 화정동 859",
      "lat": 37.64538018,
      "lon": 126.8327278,
      "보관대수": 2,
      "설치연도": null,
      "설치형태": "휀스형",
      "차양막설치여부": "",
      "공기주입기비치여부": "N",
      "공기주입기유형": "",
      "수리대설치여부": "N",
      "관리기관전화번호": "031-8075-5314",
      "관리기관명": "경기도 고양시 덕양구청",
      "데이터기준일자": "2020-11-26"
    },
    {
      "id": 172,
      "name": "고봉초등학교",
      "소재지도로명주소": "경기도 고양시 일산동구 중산로 280",
      "소재지지번주소": "경기도 고양시 일산동구 중산동 1554-1",
      "lat": 37.6961389,
      "lon": 126.7826194,
      "보관대수": 10,
      "설치연도": null,
      "설치형태": "거치형",
      "차양막설치여부": "",
      "공기주입기비치여부": "N",
      "공기주입기유형": "",
      "수리대설치여부": "N",
      "관리기관전화번호": "031-8075-6315",
      "관리기관명": "경기도 고양시 일산동구청",
      "데이터기준일자": "2020-11-26"
    },
    {
      "id": 173,
      "name": "백석중학교",
      "소재지도로명주소": "경기도 고양시 일산동구 호수로 404",
      "소재지지번주소": "경기도 고양시 일산동구 백석동 1346",
      "lat": 37.6420049,
      "lon": 126.782818,
      "보관대수": 60,
      "설치연도": null,
      "설치형태": "휀스형",
      "차양막설치여부": "",
      "공기주입기비치여부": "N",
      "공기주입기유형": "",
      "수리대설치여부": "N",
      "관리기관전화번호": "031-8075-6315",
      "관리기관명": "경기도 고양시 일산동구청",
      "데이터기준일자": "2020-11-26"
    },
    {
      "id": 174,
      "name": "백마고등학교",
      "소재지도로명주소": "경기도 고양시 일산동구 백석로 155",
      "소재지지번주소": "경기도 고양시 일산동구 백석동 1138",
      "lat": 37.651998,
      "lon": 126.7940121,
      "보관대수": 60,
      "설치연도": null,
      "설치형태": "거치형",
      "차양막설치여부": "",
      "공기주입기비치여부": "N",
      "공기주입기유형": "",
      "수리대설치여부": "N",
      "관리기관전화번호": "031-8075-6315",
      "관리기관명": "경기도 고양시 일산동구청",
      "데이터기준일자": "2020-11-26"
    },
    {
      "id": 175,
      "name": "백마고등학교 앞",
      "소재지도로명주소": "경기도 고양시 일산동구 백석로 155",
      "소재지지번주소": "경기도 고양시 일산동구 백석동 1399",
      "lat": 37.651998,
      "lon": 126.7940121,
      "보관대수": 30,
      "설치연도": 2015,
      "설치형태": "거치형",
      "차양막설치여부": "",
      "공기주입기비치여부": "N",
      "공기주입기유형": "",
      "수리대설치여부": "N",
      "관리기관전화번호": "031-8075-6315",
      "관리기관명": "경기도 고양시 일산동구청",
      "데이터기준일자": "2020-11-26"
    },
    {
      "id": 176,
      "name": "저동초등학교",
      "소재지도로명주소": "경기도 고양시 일산동구 대산로11번길 37",
      "소재지지번주소": "경기도 고양시 일산동구 정발산동 688",
      "lat": 37.668012,
      "lon": 126.7738787,
      "보관대수": 75,
      "설치연도": null,
      "설치형태": "거치형",
      "차양막설치여부": "",
      "공기주입기비치여부": "N",
      "공기주입기유형": "",
      "수리대설치여부": "N",
      "관리기관전화번호": "031-8075-6315",
      "관리기관명": "경기도 고양시 일산동구청",
      "데이터기준일자": "2020-11-26"
    },
    {
      "id": 177,
      "name": "백신중학교",
      "소재지도로명주소": "경기도 고양시 일산동구 강촌로 89",
      "소재지지번주소": "경기도 고양시 일산동구 마두동 788",
      "lat": 37.65133249,
      "lon": 126.7831761,
      "보관대수": 60,
      "설치연도": null,
      "설치형태": "거치형",
      "차양막설치여부": "",
      "공기주입기비치여부": "N",
      "공기주입기유형": "",
      "수리대설치여부": "N",
      "관리기관전화번호": "031-8075-6315",
      "관리기관명": "경기도 고양시 일산동구청",
      "데이터기준일자": "2020-11-26"
    },
    {
      "id": 178,
      "name": "백신중학교 정문",
      "소재지도로명주소": "경기도 고양시 일산동구 강촌로 89",
      "소재지지번주소": "경기도 고양시 일산동구 마두동 788",
      "lat": 37.65133249,
      "lon": 126.7831761,
      "보관대수": 45,
      "설치연도": null,
      "설치형태": "거치형",
      "차양막설치여부": "",
      "공기주입기비치여부": "N",
      "공기주입기유형": "",
      "수리대설치여부": "N",
      "관리기관전화번호": "031-8075-6315",
      "관리기관명": "경기도 고양시 일산동구청",
      "데이터기준일자": "2020-11-26"
    },
    {
      "id": 179,
      "name": "백신중학교 정문",
      "소재지도로명주소": "경기도 고양시 일산동구 강촌로 89",
      "소재지지번주소": "경기도 고양시 일산동구 마두동 788",
      "lat": 37.65133249,
      "lon": 126.7831761,
      "보관대수": 20,
      "설치연도": null,
      "설치형태": "거치형",
      "차양막설치여부": "",
      "공기주입기비치여부": "N",
      "공기주입기유형": "",
      "수리대설치여부": "N",
      "관리기관전화번호": "031-8075-6315",
      "관리기관명": "경기도 고양시 일산동구청",
      "데이터기준일자": "2020-11-26"
    },
    {
      "id": 180,
      "name": "백석초등학교",
      "소재지도로명주소": "경기도 고양시 일산동구 강촌로 140",
      "소재지지번주소": "경기도 고양시 일산동구 백석동 1188",
      "lat": 37.65213962,
      "lon": 126.7890573,
      "보관대수": 95,
      "설치연도": null,
      "설치형태": "거치형",
      "차양막설치여부": "",
      "공기주입기비치여부": "N",
      "공기주입기유형": "",
      "수리대설치여부": "N",
      "관리기관전화번호": "031-8075-6315",
      "관리기관명": "경기도 고양시 일산동구청",
      "데이터기준일자": "2020-11-26"
    },
    {
      "id": 181,
      "name": "백석고등학교 후문",
      "소재지도로명주소": "경기도 고양시 일산동구 강촌로 140",
      "소재지지번주소": "경기도 고양시 일산동구 백석동 1188",
      "lat": 37.65213962,
      "lon": 126.7890573,
      "보관대수": 20,
      "설치연도": 2013,
      "설치형태": "거치형",
      "차양막설치여부": "",
      "공기주입기비치여부": "N",
      "공기주입기유형": "",
      "수리대설치여부": "N",
      "관리기관전화번호": "031-8075-6315",
      "관리기관명": "경기도 고양시 일산동구청",
      "데이터기준일자": "2020-11-26"
    },
    {
      "id": 182,
      "name": "정발중학교",
      "소재지도로명주소": "경기도 고양시 일산동구 정발산로 115",
      "소재지지번주소": "경기도 고양시 일산동구 마두동 811",
      "lat": 37.659499,
      "lon": 126.7807453,
      "보관대수": 40,
      "설치연도": null,
      "설치형태": "거치형",
      "차양막설치여부": "",
      "공기주입기비치여부": "Y",
      "공기주입기유형": "수동식",
      "수리대설치여부": "N",
      "관리기관전화번호": "031-8075-6315",
      "관리기관명": "경기도 고양시 일산동구청",
      "데이터기준일자": "2020-11-26"
    },
    {
      "id": 183,
      "name": "정발중학교 주변",
      "소재지도로명주소": "경기도 고양시 일산동구 정발산로 115",
      "소재지지번주소": "경기도 고양시 일산동구 마두동 811",
      "lat": 37.659499,
      "lon": 126.7807453,
      "보관대수": 20,
      "설치연도": 2013,
      "설치형태": "거치형",
      "차양막설치여부": "",
      "공기주입기비치여부": "N",
      "공기주입기유형": "",
      "수리대설치여부": "N",
      "관리기관전화번호": "031-8075-6315",
      "관리기관명": "경기도 고양시 일산동구청",
      "데이터기준일자": "2020-11-26"
    },
    {
      "id": 184,
      "name": "풍산초등학교",
      "소재지도로명주소": "경기도 고양시 일산동구 숲속마을로 51",
      "소재지지번주소": "경기도 고양시 일산동구 풍동 1284",
      "lat": 37.66687147,
      "lon": 126.7967048,
      "보관대수": 63,
      "설치연도": null,
      "설치형태": "거치형",
      "차양막설치여부": "",
      "공기주입기비치여부": "N",
      "공기주입기유형": "",
      "수리대설치여부": "N",
      "관리기관전화번호": "031-8075-6315",
      "관리기관명": "경기도 고양시 일산동구청",
      "데이터기준일자": "2020-11-26"
    },
    {
      "id": 185,
      "name": "백신초등학교",
      "소재지도로명주소": "경기도 고양시 일산동구 강촌로26번길 66",
      "소재지지번주소": "경기도 고양시 일산동구 백석동 1428",
      "lat": 37.64426859,
      "lon": 126.7811118,
      "보관대수": 55,
      "설치연도": null,
      "설치형태": "거치형",
      "차양막설치여부": "",
      "공기주입기비치여부": "N",
      "공기주입기유형": "",
      "수리대설치여부": "N",
      "관리기관전화번호": "031-8075-6315",
      "관리기관명": "경기도 고양시 일산동구청",
      "데이터기준일자": "2020-11-26"
    },
    {
      "id": 186,
      "name": "백신초등학교 후문",
      "소재지도로명주소": "경기도 고양시 일산동구 강촌로26번길 66",
      "소재지지번주소": "경기도 고양시 일산동구 백석동 1428",
      "lat": 37.64426859,
      "lon": 126.7811118,
      "보관대수": 30,
      "설치연도": null,
      "설치형태": "휀스형",
      "차양막설치여부": "",
      "공기주입기비치여부": "N",
      "공기주입기유형": "",
      "수리대설치여부": "N",
      "관리기관전화번호": "031-8075-6315",
      "관리기관명": "경기도 고양시 일산동구청",
      "데이터기준일자": "2020-11-26"
    },
    {
      "id": 187,
      "name": "화전역",
      "소재지도로명주소": "경기도 고양시 덕양구 화랑로 15",
      "소재지지번주소": "경기도 고양시 덕양구 화전동 183-11",
      "lat": 37.6003975,
      "lon": 126.8715254,
      "보관대수": 71,
      "설치연도": null,
      "설치형태": "휀스형",
      "차양막설치여부": "",
      "공기주입기비치여부": "N",
      "공기주입기유형": "",
      "수리대설치여부": "N",
      "관리기관전화번호": "031-8075-5314",
      "관리기관명": "경기도 고양시 덕양구청",
      "데이터기준일자": "2020-11-26"
    },
    {
      "id": 188,
      "name": "덕양구청",
      "소재지도로명주소": "경기도 고양시 덕양구 화중로104번길 13",
      "소재지지번주소": "경기도 고양시 덕양구 화정동 955",
      "lat": 37.63746533,
      "lon": 126.8322924,
      "보관대수": 21,
      "설치연도": null,
      "설치형태": "휀스형",
      "차양막설치여부": "",
      "공기주입기비치여부": "Y",
      "공기주입기유형": "기계식",
      "수리대설치여부": "N",
      "관리기관전화번호": "031-8075-5314",
      "관리기관명": "경기도 고양시 덕양구청",
      "데이터기준일자": "2020-11-26"
    },
    {
      "id": 189,
      "name": "화정역",
      "소재지도로명주소": "경기도 고양시 덕양구 화정로 지하 60",
      "소재지지번주소": "경기도 고양시 덕양구 화정동 1098",
      "lat": 37.634552,
      "lon": 126.8326298,
      "보관대수": 499,
      "설치연도": null,
      "설치형태": "휀스형",
      "차양막설치여부": "",
      "공기주입기비치여부": "N",
      "공기주입기유형": "",
      "수리대설치여부": "N",
      "관리기관전화번호": "031-8075-5314",
      "관리기관명": "경기도 고양시 덕양구청",
      "데이터기준일자": "2020-11-26"
    },
    {
      "id": 190,
      "name": "화정중학교 앞",
      "소재지도로명주소": "경기도 고양시 덕양구 화신로 343",
      "소재지지번주소": "경기도 고양시 덕양구 화정동 941",
      "lat": 37.63491254,
      "lon": 126.8264793,
      "보관대수": 87,
      "설치연도": null,
      "설치형태": "휀스형",
      "차양막설치여부": "",
      "공기주입기비치여부": "N",
      "공기주입기유형": "",
      "수리대설치여부": "N",
      "관리기관전화번호": "031-8075-5314",
      "관리기관명": "경기도 고양시 덕양구청",
      "데이터기준일자": "2020-11-26"
    },
    {
      "id": 191,
      "name": "다솜초등학교",
      "소재지도로명주소": "경기도 고양시 일산동구 숲속마을로 139",
      "소재지지번주소": "경기도 고양시 일산동구 풍동 1232",
      "lat": 37.67258705,
      "lon": 126.796589,
      "보관대수": 56,
      "설치연도": null,
      "설치형태": "거치형",
      "차양막설치여부": "",
      "공기주입기비치여부": "N",
      "공기주입기유형": "",
      "수리대설치여부": "N",
      "관리기관전화번호": "031-8075-6315",
      "관리기관명": "경기도 고양시 일산동구청",
      "데이터기준일자": "2020-11-26"
    },
    {
      "id": 192,
      "name": "금계초등학교",
      "소재지도로명주소": "경기도 고양시 일산동구 강촌로 90",
      "소재지지번주소": "경기도 고양시 일산동구 백석동 1192",
      "lat": 37.64960108,
      "lon": 126.7843098,
      "보관대수": 56,
      "설치연도": null,
      "설치형태": "거치형",
      "차양막설치여부": "",
      "공기주입기비치여부": "N",
      "공기주입기유형": "",
      "수리대설치여부": "N",
      "관리기관전화번호": "031-8075-6315",
      "관리기관명": "경기도 고양시 일산동구청",
      "데이터기준일자": "2020-11-26"
    },
    {
      "id": 193,
      "name": "풍동초등학교",
      "소재지도로명주소": "경기도 고양시 일산동구 숲속마을로 14-43",
      "소재지지번주소": "경기도 고양시 일산동구 풍동 1266",
      "lat": 37.66951581,
      "lon": 126.8025235,
      "보관대수": 56,
      "설치연도": null,
      "설치형태": "거치형",
      "차양막설치여부": "",
      "공기주입기비치여부": "N",
      "공기주입기유형": "",
      "수리대설치여부": "N",
      "관리기관전화번호": "031-8075-6315",
      "관리기관명": "경기도 고양시 일산동구청",
      "데이터기준일자": "2020-11-26"
    },
    {
      "id": 194,
      "name": "저동고 후문",
      "소재지도로명주소": "경기도 고양시 일산동구 무궁화로 165",
      "소재지지번주소": "경기도 고양시 일산동구 정발산동 1208",
      "lat": 37.670887,
      "lon": 126.7790569,
      "보관대수": 30,
      "설치연도": null,
      "설치형태": "거치형",
      "차양막설치여부": "",
      "공기주입기비치여부": "N",
      "공기주입기유형": "",
      "수리대설치여부": "N",
      "관리기관전화번호": "031-8075-6315",
      "관리기관명": "경기도 고양시 일산동구청",
      "데이터기준일자": "2020-11-26"
    },
    {
      "id": 195,
      "name": "저동중학교",
      "소재지도로명주소": "경기도 고양시 일산동구 무궁화로 159",
      "소재지지번주소": "경기도 고양시 일산동구 정발산동 1192",
      "lat": 37.67073702,
      "lon": 126.7779147,
      "보관대수": 161,
      "설치연도": null,
      "설치형태": "거치형",
      "차양막설치여부": "",
      "공기주입기비치여부": "N",
      "공기주입기유형": "",
      "수리대설치여부": "N",
      "관리기관전화번호": "031-8075-6315",
      "관리기관명": "경기도 고양시 일산동구청",
      "데이터기준일자": "2020-11-26"
    },
    {
      "id": 196,
      "name": "안곡고등학교",
      "소재지도로명주소": "경기도 고양시 일산동구 하늘마을로 75",
      "소재지지번주소": "경기도 고양시 일산동구 중산동 1718",
      "lat": 37.682039,
      "lon": 126.7872086,
      "보관대수": 70,
      "설치연도": null,
      "설치형태": "거치형",
      "차양막설치여부": "",
      "공기주입기비치여부": "N",
      "공기주입기유형": "",
      "수리대설치여부": "N",
      "관리기관전화번호": "031-8075-6315",
      "관리기관명": "경기도 고양시 일산동구청",
      "데이터기준일자": "2020-11-26"
    },
    {
      "id": 197,
      "name": "안곡중학교",
      "소재지도로명주소": "경기도 고양시 일산동구 하늘마을로 93",
      "소재지지번주소": "경기도 고양시 일산동구 중산동 1709",
      "lat": 37.6809058,
      "lon": 126.7868852,
      "보관대수": 70,
      "설치연도": null,
      "설치형태": "거치형",
      "차양막설치여부": "",
      "공기주입기비치여부": "N",
      "공기주입기유형": "",
      "수리대설치여부": "N",
      "관리기관전화번호": "031-8075-6315",
      "관리기관명": "경기도 고양시 일산동구청",
      "데이터기준일자": "2020-11-26"
    },
    {
      "id": 198,
      "name": "낙민초등학교",
      "소재지도로명주소": "경기도 고양시 일산동구 강석로 134",
      "소재지지번주소": "경기도 고양시 일산동구 마두동 795",
      "lat": 37.65392883,
      "lon": 126.780051,
      "보관대수": 75,
      "설치연도": null,
      "설치형태": "거치형",
      "차양막설치여부": "",
      "공기주입기비치여부": "N",
      "공기주입기유형": "",
      "수리대설치여부": "N",
      "관리기관전화번호": "031-8075-6315",
      "관리기관명": "경기도 고양시 일산동구청",
      "데이터기준일자": "2020-11-26"
    },
    {
      "id": 199,
      "name": "백마중학교",
      "소재지도로명주소": "경기도 고양시 일산동구 강촌로 189",
      "소재지지번주소": "경기도 고양시 일산동구 마두동 733",
      "lat": 37.6551276,
      "lon": 126.7933099,
      "보관대수": 120,
      "설치연도": null,
      "설치형태": "거치형",
      "차양막설치여부": "",
      "공기주입기비치여부": "N",
      "공기주입기유형": "",
      "수리대설치여부": "N",
      "관리기관전화번호": "031-8075-6315",
      "관리기관명": "경기도 고양시 일산동구청",
      "데이터기준일자": "2020-11-26"
    },
    {
      "id": 200,
      "name": "백마초등학교",
      "소재지도로명주소": "경기도 고양시 일산동구 일산로 230",
      "소재지지번주소": "경기도 고양시 일산동구 마두동 718",
      "lat": 37.6578697,
      "lon": 126.790868,
      "보관대수": 55,
      "설치연도": null,
      "설치형태": "거치형",
      "차양막설치여부": "",
      "공기주입기비치여부": "N",
      "공기주입기유형": "",
      "수리대설치여부": "N",
      "관리기관전화번호": "031-8075-6315",
      "관리기관명": "경기도 고양시 일산동구청",
      "데이터기준일자": "2020-11-26"
    },
    {
      "id": 201,
      "name": "백석고등학교",
      "소재지도로명주소": "경기도 고양시 일산동구 강촌로 115",
      "소재지지번주소": "경기도 고양시 일산동구 마두동 784",
      "lat": 37.65290702,
      "lon": 126.7869202,
      "보관대수": 50,
      "설치연도": null,
      "설치형태": "거치형",
      "차양막설치여부": "",
      "공기주입기비치여부": "N",
      "공기주입기유형": "",
      "수리대설치여부": "N",
      "관리기관전화번호": "031-8075-6315",
      "관리기관명": "경기도 고양시 일산동구청",
      "데이터기준일자": "2020-11-26"
    },
    {
      "id": 202,
      "name": "호수초등학교",
      "소재지도로명주소": "경기도 고양시 일산동구 강촌로 27",
      "소재지지번주소": "경기도 고양시 일산동구 장항동 880",
      "lat": 37.64702692,
      "lon": 126.777916,
      "보관대수": 80,
      "설치연도": null,
      "설치형태": "거치형",
      "차양막설치여부": "",
      "공기주입기비치여부": "N",
      "공기주입기유형": "",
      "수리대설치여부": "N",
      "관리기관전화번호": "031-8075-6315",
      "관리기관명": "경기도 고양시 일산동구청",
      "데이터기준일자": "2020-11-26"
    },
    {
      "id": 203,
      "name": "암센터",
      "소재지도로명주소": "경기도 고양시 일산동구 일산로 323",
      "소재지지번주소": "경기도 고양시 일산동구 마두동 809",
      "lat": 37.66322585,
      "lon": 126.7833999,
      "보관대수": 30,
      "설치연도": null,
      "설치형태": "거치형",
      "차양막설치여부": "",
      "공기주입기비치여부": "Y",
      "공기주입기유형": "기계식",
      "수리대설치여부": "N",
      "관리기관전화번호": "031-8075-6315",
      "관리기관명": "경기도 고양시 일산동구청",
      "데이터기준일자": "2020-11-26"
    },
    {
      "id": 204,
      "name": "백석도서관",
      "소재지도로명주소": "경기도 고양시 일산동구 일산로 118",
      "소재지지번주소": "경기도 고양시 일산동구 백석동 1231",
      "lat": 37.64721753,
      "lon": 126.793614,
      "보관대수": 80,
      "설치연도": null,
      "설치형태": "거치형",
      "차양막설치여부": "",
      "공기주입기비치여부": "N",
      "공기주입기유형": "",
      "수리대설치여부": "N",
      "관리기관전화번호": "031-8075-6315",
      "관리기관명": "경기도 고양시 일산동구청",
      "데이터기준일자": "2020-11-26"
    },
    {
      "id": 205,
      "name": "백석우체국",
      "소재지도로명주소": "경기도 고양시 일산동구 강송로 123",
      "소재지지번주소": "경기도 고양시 일산동구 백석동 1223",
      "lat": 37.649821,
      "lon": 126.785932,
      "보관대수": 80,
      "설치연도": null,
      "설치형태": "거치형",
      "차양막설치여부": "",
      "공기주입기비치여부": "Y",
      "공기주입기유형": "수동식",
      "수리대설치여부": "N",
      "관리기관전화번호": "031-8075-6315",
      "관리기관명": "경기도 고양시 일산동구청",
      "데이터기준일자": "2020-11-26"
    },
    {
      "id": 206,
      "name": "마두2동주민센터",
      "소재지도로명주소": "경기도 고양시 일산동구 강송로 166",
      "소재지지번주소": "경기도 고양시 일산동구 마두동 782",
      "lat": 37.653548,
      "lon": 126.784443,
      "보관대수": 80,
      "설치연도": null,
      "설치형태": "휀스형",
      "차양막설치여부": "Y",
      "공기주입기비치여부": "N",
      "공기주입기유형": "",
      "수리대설치여부": "N",
      "관리기관전화번호": "031-8075-6315",
      "관리기관명": "경기도 고양시 일산동구청",
      "데이터기준일자": "2020-11-26"
    },
    {
      "id": 207,
      "name": "일산동구청",
      "소재지도로명주소": "경기도 고양시 일산동구 중앙로 1256",
      "소재지지번주소": "경기도 고양시 일산동구 마두동 815",
      "lat": 37.65888174,
      "lon": 126.774914,
      "보관대수": 262,
      "설치연도": null,
      "설치형태": "거치형",
      "차양막설치여부": "",
      "공기주입기비치여부": "N",
      "공기주입기유형": "",
      "수리대설치여부": "N",
      "관리기관전화번호": "031-8075-6315",
      "관리기관명": "경기도 고양시 일산동구청",
      "데이터기준일자": "2020-11-26"
    },
    {
      "id": 208,
      "name": "마두도서관",
      "소재지도로명주소": "경기도 고양시 일산동구 일산로 355",
      "소재지지번주소": "경기도 고양시 일산동구 마두동 1112",
      "lat": 37.66671557,
      "lon": 126.7820569,
      "보관대수": 212,
      "설치연도": null,
      "설치형태": "휀스형",
      "차양막설치여부": "",
      "공기주입기비치여부": "N",
      "공기주입기유형": "",
      "수리대설치여부": "N",
      "관리기관전화번호": "031-8075-6315",
      "관리기관명": "경기도 고양시 일산동구청",
      "데이터기준일자": "2020-11-26"
    },
    {
      "id": 209,
      "name": "풍산동주민센터",
      "소재지도로명주소": "경기도 고양시 일산동구 숲속마을1로 36",
      "소재지지번주소": "경기도 고양시 일산동구 풍동 349-16",
      "lat": 37.664043,
      "lon": 126.7998502,
      "보관대수": 26,
      "설치연도": null,
      "설치형태": "거치형",
      "차양막설치여부": "",
      "공기주입기비치여부": "N",
      "공기주입기유형": "",
      "수리대설치여부": "N",
      "관리기관전화번호": "031-8075-6315",
      "관리기관명": "경기도 고양시 일산동구청",
      "데이터기준일자": "2020-11-26"
    },
    {
      "id": 210,
      "name": "고봉동 7통 노인정",
      "소재지도로명주소": "경기도 고양시 일산동구 성석로 189-3",
      "소재지지번주소": "경기도 고양시 일산동구 성석동 764-8",
      "lat": 37.69390556,
      "lon": 126.797365,
      "보관대수": 7,
      "설치연도": null,
      "설치형태": "기타",
      "차양막설치여부": "",
      "공기주입기비치여부": "N",
      "공기주입기유형": "",
      "수리대설치여부": "N",
      "관리기관전화번호": "031-8075-6315",
      "관리기관명": "경기도 고양시 일산동구청",
      "데이터기준일자": "2020-11-26"
    },
    {
      "id": 211,
      "name": "고봉동 4통 노인정",
      "소재지도로명주소": "경기도 고양시 일산동구 문원길172",
      "소재지지번주소": "경기도 고양시 일산동구 설문동 314-24",
      "lat": 37.721962,
      "lon": 126.8163431,
      "보관대수": 10,
      "설치연도": null,
      "설치형태": "기타",
      "차양막설치여부": "",
      "공기주입기비치여부": "N",
      "공기주입기유형": "",
      "수리대설치여부": "N",
      "관리기관전화번호": "031-8075-6315",
      "관리기관명": "경기도 고양시 일산동구청",
      "데이터기준일자": "2020-11-26"
    },
    {
      "id": 212,
      "name": "아람누리",
      "소재지도로명주소": "경기도 고양시 일산동구 중앙로1286",
      "소재지지번주소": "경기도 고양시 일산동구 마두동 816",
      "lat": 37.66148641,
      "lon": 126.7744561,
      "보관대수": 112,
      "설치연도": null,
      "설치형태": "거치형",
      "차양막설치여부": "",
      "공기주입기비치여부": "N",
      "공기주입기유형": "",
      "수리대설치여부": "N",
      "관리기관전화번호": "031-8075-6315",
      "관리기관명": "경기도 고양시 일산동구청",
      "데이터기준일자": "2020-11-26"
    },
    {
      "id": 213,
      "name": "풍동도서관",
      "소재지도로명주소": "경기도 고양시 일산동구 숲속마을로 108",
      "소재지지번주소": "경기도 고양시 일산동구 풍동 1257",
      "lat": 37.67022046,
      "lon": 126.7951722,
      "보관대수": 72,
      "설치연도": null,
      "설치형태": "거치형",
      "차양막설치여부": "",
      "공기주입기비치여부": "N",
      "공기주입기유형": "",
      "수리대설치여부": "N",
      "관리기관전화번호": "031-8075-6315",
      "관리기관명": "경기도 고양시 일산동구청",
      "데이터기준일자": "2020-11-26"
    },
    {
      "id": 214,
      "name": "마두1동주민센터",
      "소재지도로명주소": "경기도 고양시 일산동구 일산로 218",
      "소재지지번주소": "경기도 고양시 일산동구 마두동 727",
      "lat": 37.65581694,
      "lon": 126.7897781,
      "보관대수": 18,
      "설치연도": null,
      "설치형태": "거치형",
      "차양막설치여부": "Y",
      "공기주입기비치여부": "N",
      "공기주입기유형": "",
      "수리대설치여부": "N",
      "관리기관전화번호": "031-8075-6315",
      "관리기관명": "경기도 고양시 일산동구청",
      "데이터기준일자": "2020-11-26"
    },
    {
      "id": 215,
      "name": "고봉동주민센터",
      "소재지도로명주소": "경기도 고양시 일산동구 성현로 397-18",
      "소재지지번주소": "경기도 고양시 일산동구 문봉동 57-4",
      "lat": 37.70191039,
      "lon": 126.827162,
      "보관대수": 18,
      "설치연도": null,
      "설치형태": "거치형",
      "차양막설치여부": "Y",
      "공기주입기비치여부": "N",
      "공기주입기유형": "",
      "수리대설치여부": "N",
      "관리기관전화번호": "031-8075-6315",
      "관리기관명": "경기도 고양시 일산동구청",
      "데이터기준일자": "2020-11-26"
    },
    {
      "id": 216,
      "name": "식사동주민센터",
      "소재지도로명주소": "경기도 고양시 일산동구 위시티2로11번길 22-21",
      "소재지지번주소": "경기도 고양시 일산동구 식사동 1536",
      "lat": 37.67734008,
      "lon": 126.8137071,
      "보관대수": 18,
      "설치연도": null,
      "설치형태": "기타",
      "차양막설치여부": "Y",
      "공기주입기비치여부": "N",
      "공기주입기유형": "",
      "수리대설치여부": "N",
      "관리기관전화번호": "031-8075-6315",
      "관리기관명": "경기도 고양시 일산동구청",
      "데이터기준일자": "2020-11-26"
    },
    {
      "id": 217,
      "name": "중산동주민센터",
      "소재지도로명주소": "경기도 고양시 일산동구 중산로 224",
      "소재지지번주소": "경기도 고양시 일산동구 중산동 1573-4",
      "lat": 37.6918174,
      "lon": 126.780433,
      "보관대수": 10,
      "설치연도": null,
      "설치형태": "거치형",
      "차양막설치여부": "Y",
      "공기주입기비치여부": "Y",
      "공기주입기유형": "수동식",
      "수리대설치여부": "N",
      "관리기관전화번호": "031-8075-6315",
      "관리기관명": "경기도 고양시 일산동구청",
      "데이터기준일자": "2020-11-26"
    },
    {
      "id": 218,
      "name": "정발산동주민센터",
      "소재지도로명주소": "경기도 고양시 일산동구 일산로 422",
      "소재지지번주소": "경기도 고양시 일산동구 정발산동 1212",
      "lat": 37.672418,
      "lon": 126.779815,
      "보관대수": 10,
      "설치연도": null,
      "설치형태": "거치형",
      "차양막설치여부": "Y",
      "공기주입기비치여부": "N",
      "공기주입기유형": "",
      "수리대설치여부": "N",
      "관리기관전화번호": "031-8075-6315",
      "관리기관명": "경기도 고양시 일산동구청",
      "데이터기준일자": "2020-11-26"
    },
    {
      "id": 219,
      "name": "백석1동주민센터",
      "소재지도로명주소": "경기도 고양시 일산동구 일산로 145",
      "소재지지번주소": "경기도 고양시 일산동구 백석동 1147",
      "lat": 37.649681,
      "lon": 126.792406,
      "보관대수": 10,
      "설치연도": null,
      "설치형태": "거치형",
      "차양막설치여부": "Y",
      "공기주입기비치여부": "N",
      "공기주입기유형": "",
      "수리대설치여부": "N",
      "관리기관전화번호": "031-8075-6315",
      "관리기관명": "경기도 고양시 일산동구청",
      "데이터기준일자": "2020-11-26"
    },
    {
      "id": 220,
      "name": "백석2동주민센터",
      "소재지도로명주소": "경기도 고양시 일산동구 장백로 72",
      "소재지지번주소": "경기도 고양시 일산동구 백석동 1339",
      "lat": 37.643905,
      "lon": 126.7854956,
      "보관대수": 10,
      "설치연도": null,
      "설치형태": "거치형",
      "차양막설치여부": "Y",
      "공기주입기비치여부": "N",
      "공기주입기유형": "",
      "수리대설치여부": "N",
      "관리기관전화번호": "031-8075-6315",
      "관리기관명": "경기도 고양시 일산동구청",
      "데이터기준일자": "2020-11-26"
    },
    {
      "id": 221,
      "name": "장항1동주민센터",
      "소재지도로명주소": "경기도 고양시 일산동구 장항로225번길 72",
      "소재지지번주소": "경기도 고양시 일산동구 장항동 578-2",
      "lat": 37.64162842,
      "lon": 126.7705279,
      "보관대수": 18,
      "설치연도": null,
      "설치형태": "기타",
      "차양막설치여부": "Y",
      "공기주입기비치여부": "N",
      "공기주입기유형": "",
      "수리대설치여부": "N",
      "관리기관전화번호": "031-8075-6315",
      "관리기관명": "경기도 고양시 일산동구청",
      "데이터기준일자": "2020-11-26"
    },
    {
      "id": 222,
      "name": "장항2동주민센터",
      "소재지도로명주소": "경기도 고양시 일산동구 노루목로 114",
      "소재지지번주소": "경기도 고양시 일산동구 장항동 900",
      "lat": 37.64988189,
      "lon": 126.778302,
      "보관대수": 14,
      "설치연도": null,
      "설치형태": "거치형",
      "차양막설치여부": "Y",
      "공기주입기비치여부": "N",
      "공기주입기유형": "",
      "수리대설치여부": "N",
      "관리기관전화번호": "031-8075-6315",
      "관리기관명": "경기도 고양시 일산동구청",
      "데이터기준일자": "2020-11-26"
    },
    {
      "id": 223,
      "name": "공원관리사업소",
      "소재지도로명주소": "경기도 고양시 일산동구 햇살로 56",
      "소재지지번주소": "경기도 고양시 일산동구 마두동 1121",
      "lat": 37.66489659,
      "lon": 126.7768078,
      "보관대수": 48,
      "설치연도": null,
      "설치형태": "거치형",
      "차양막설치여부": "",
      "공기주입기비치여부": "N",
      "공기주입기유형": "",
      "수리대설치여부": "N",
      "관리기관전화번호": "031-8075-6315",
      "관리기관명": "경기도 고양시 일산동구청",
      "데이터기준일자": "2020-11-26"
    },
    {
      "id": 224,
      "name": "일산경찰서",
      "소재지도로명주소": "경기도 고양시 일산동구 중앙로 1338",
      "소재지지번주소": "경기도 고양시 일산동구 정발산동 725",
      "lat": 37.66501958,
      "lon": 126.7695492,
      "보관대수": 90,
      "설치연도": null,
      "설치형태": "거치형",
      "차양막설치여부": "",
      "공기주입기비치여부": "N",
      "공기주입기유형": "",
      "수리대설치여부": "N",
      "관리기관전화번호": "031-8075-6315",
      "관리기관명": "경기도 고양시 일산동구청",
      "데이터기준일자": "2020-11-26"
    },
    {
      "id": 225,
      "name": "식사도서관",
      "소재지도로명주소": "경기도 고양시 일산동구 위시티2로 43-6",
      "소재지지번주소": "경기도 고양시 일산동구 식사동 1234-3",
      "lat": 37.67621201,
      "lon": 126.8159045,
      "보관대수": 30,
      "설치연도": null,
      "설치형태": "거치형",
      "차양막설치여부": "",
      "공기주입기비치여부": "N",
      "공기주입기유형": "",
      "수리대설치여부": "N",
      "관리기관전화번호": "031-8075-6315",
      "관리기관명": "경기도 고양시 일산동구청",
      "데이터기준일자": "2020-11-26"
    },
    {
      "id": 226,
      "name": "정발우체국",
      "소재지도로명주소": "경기도 고양시 일산동구 일산로 425",
      "소재지지번주소": "경기도 고양시 일산동구 정발산동 1206",
      "lat": 37.672343,
      "lon": 126.779062,
      "보관대수": 72,
      "설치연도": null,
      "설치형태": "거치형",
      "차양막설치여부": "",
      "공기주입기비치여부": "N",
      "공기주입기유형": "",
      "수리대설치여부": "N",
      "관리기관전화번호": "031-8075-6315",
      "관리기관명": "경기도 고양시 일산동구청",
      "데이터기준일자": "2020-11-26"
    },
    {
      "id": 227,
      "name": "일산동구보건소",
      "소재지도로명주소": "경기도 고양시 일산동구 중앙로 1228",
      "소재지지번주소": "경기도 고양시 일산동구 마두동 1010",
      "lat": 37.65597924,
      "lon": 126.77615,
      "보관대수": 72,
      "설치연도": null,
      "설치형태": "거치형",
      "차양막설치여부": "",
      "공기주입기비치여부": "N",
      "공기주입기유형": "",
      "수리대설치여부": "N",
      "관리기관전화번호": "031-8075-6315",
      "관리기관명": "경기도 고양시 일산동구청",
      "데이터기준일자": "2020-11-26"
    },
    {
      "id": 228,
      "name": "장항동 법원",
      "소재지도로명주소": "경기도 고양시 일산동구 장백로 209",
      "소재지지번주소": "경기도 고양시 일산동구 장항동 885-1",
      "lat": 37.65291348,
      "lon": 126.7748719,
      "보관대수": 172,
      "설치연도": null,
      "설치형태": "거치형",
      "차양막설치여부": "",
      "공기주입기비치여부": "N",
      "공기주입기유형": "",
      "수리대설치여부": "N",
      "관리기관전화번호": "031-8075-6315",
      "관리기관명": "경기도 고양시 일산동구청",
      "데이터기준일자": "2020-11-26"
    },
    {
      "id": 229,
      "name": "백석동 아파트형 공장 주변",
      "소재지도로명주소": "경기도 고양시 일산동구 일산로 142",
      "소재지지번주소": "경기도 고양시 일산동구 백석동 1141-2",
      "lat": 37.64992427,
      "lon": 126.7937322,
      "보관대수": 40,
      "설치연도": null,
      "설치형태": "거치형",
      "차양막설치여부": "",
      "공기주입기비치여부": "N",
      "공기주입기유형": "",
      "수리대설치여부": "N",
      "관리기관전화번호": "031-8075-6315",
      "관리기관명": "경기도 고양시 일산동구청",
      "데이터기준일자": "2020-11-26"
    },
    {
      "id": 230,
      "name": "식사동 SK3단지버스정류장",
      "소재지도로명주소": "경기도 고양시 일산동구 은행마을로 100",
      "소재지지번주소": "경기도 고양시 일산동구 식사동 1474",
      "lat": 37.67097472,
      "lon": 126.8064642,
      "보관대수": 15,
      "설치연도": null,
      "설치형태": "거치형",
      "차양막설치여부": "",
      "공기주입기비치여부": "N",
      "공기주입기유형": "",
      "수리대설치여부": "N",
      "관리기관전화번호": "031-8075-6315",
      "관리기관명": "경기도 고양시 일산동구청",
      "데이터기준일자": "2020-11-26"
    },
    {
      "id": 231,
      "name": "식사동 1331번지",
      "소재지도로명주소": "경기도 고양시 일산동구 식사로 108",
      "소재지지번주소": "경기도 고양시 일산동구 식사동 1331",
      "lat": 37.67557813,
      "lon": 126.8185631,
      "보관대수": 20,
      "설치연도": null,
      "설치형태": "거치형",
      "차양막설치여부": "",
      "공기주입기비치여부": "N",
      "공기주입기유형": "",
      "수리대설치여부": "N",
      "관리기관전화번호": "031-8075-6315",
      "관리기관명": "경기도 고양시 일산동구청",
      "데이터기준일자": "2020-11-26"
    },
    {
      "id": 232,
      "name": "일산병원 정류장",
      "소재지도로명주소": "경기도 고양시 일산동구 일산로 100",
      "소재지지번주소": "경기도 고양시 일산동구 백석동 1232",
      "lat": 37.6454297,
      "lon": 126.793042,
      "보관대수": 20,
      "설치연도": null,
      "설치형태": "거치형",
      "차양막설치여부": "",
      "공기주입기비치여부": "N",
      "공기주입기유형": "",
      "수리대설치여부": "N",
      "관리기관전화번호": "031-8075-6315",
      "관리기관명": "경기도 고양시 일산동구청",
      "데이터기준일자": "2020-11-26"
    },